name,establishment,city,locality,latitude,longitude,cuisines,average_cost_for_two,highlights,aggregate_rating
Coal Barbecues,Casual Dining,Chennai,Velachery,12.98605734,80.21822412,"North Indian, Mediterranean, Asian, Arabian, BBQ",1400,"Cash, Credit Card, Debit Card, Delivery, Lunch, Takeaway Available, Dinner, Valet Parking Available, Table reservation required, Wifi, Buffet, Desserts and Bakes, Indoor Seating, Air Conditioned",4.9
Coal Barbecues,Casual Dining,Chennai,T. Nagar,13.04680916,80.23702137,"North Indian, Mediterranean, Asian, Arabian, BBQ",1400,"Dinner, Cash, Credit Card, Debit Card, Lunch, Takeaway Available, Free Parking, Indoor Seating, Air Conditioned, Valet Parking Available, Table reservation required, Kid Friendly, Buffet",4.9
Barbeque Nation,Casual Dining,Chennai,T. Nagar,13.04676148,80.23489002,"North Indian, Continental, Kebab, BBQ",1500,"Dinner, Cash, Takeaway Available, Lunch, Delivery, Credit Card, Debit Card, Indoor Seating, Air Conditioned, Buffet, Table booking recommended, Kid Friendly",4.8
Paradise,Casual Dining,Chennai,Perungudi,12.97245671,80.24980344,"Biryani, North Indian",800,"Lunch, Cash, Takeaway Available, Debit Card, No Alcohol Available, Dinner, Delivery, Credit Card, Indoor Seating, Air Conditioned, Table Reservation Not Required",4.4
Onesta,Casual Dining,Chennai,Semmancheri,12.87508844,80.2273225,"Pizza, Italian, Fast Food, Beverages, Desserts",600,"Dinner, Takeaway Available, Lunch, Cash, Credit Card, Debit Card, Indoor Seating, Air Conditioned, Buffet, Table booking recommended",4.9
Chili's American Grill & Bar,Casual Dining,Chennai,"Express Avenue Mall,  Royapettah",13.05849964,80.26460756,"Mexican, American, Tex-Mex, Burger",1400,"Dinner, Cash, Credit Card, Lunch, Mall Parking, Takeaway Available, Debit Card, Indoor Seating, Table Reservation Not Required, Air Conditioned",4.8
Maplai,Casual Dining,Chennai,Nungambakkam,13.0638324,80.23634043,"Chettinad, Biryani, South Indian",1000,"Credit Card, Delivery, Dinner, Takeaway Available, Lunch, Debit Card, No Alcohol Available, Cash, Air Conditioned, Valet Parking Available, Wheelchair Accessible, Table reservation required, Wifi, Indoor Seating, Free Parking",4.4
Copper Kitchen,Casual Dining,Chennai,Porur,13.03655957,80.15713144,"Seafood, North Indian, Chinese, Chettinad",800,"Credit Card, Debit Card, Dinner, Cash, Delivery, Lunch, Takeaway Available, Live Sports Screening, Indoor Seating, Digital Payments Accepted, Buffet, Valet Parking Available, Table booking recommended, Air Conditioned, Wifi",4.5
AB's - Absolute Barbecues,Casual Dining,Chennai,Velachery,12.98186572,80.23164991,"BBQ, North Indian, European, Beverages",1400,"Debit Card, Cash, Lunch, Takeaway Available, Credit Card, Dinner, Indoor Seating, Buffet, Air Conditioned, Table booking recommended, Digital Payments Accepted",4.9
Palmshore,Casual Dining,Chennai,Ashok Nagar,13.02983701,80.20875156,"Seafood, Biryani, Kebab, North Indian, Chinese, Arabian, BBQ, Juices",1000,"Credit Card, Debit Card, Dinner, Takeaway Available, Lunch, Cash, Delivery, Live Sports Screening, Indoor Seating, Air Conditioned, Wheelchair Accessible, Buffet, Valet Parking Available, Table booking recommended, Halal",4.5
Chili's American Grill & Bar,Casual Dining,Chennai,"Phoenix Market City, Velachery",12.99089639,80.21699969,"Mexican, American, Tex-Mex, Burger",1400,"Dinner, Mall Parking, Delivery, Credit Card, Lunch, Cash, Takeaway Available, Debit Card, Indoor Seating, Table booking recommended, Free Wifi, Air Conditioned",4.8
Yaa Mohideen Biryani,Casual Dining,Chennai,Pallavaram,12.97081527,80.14718179,"Biryani, Chinese",400,"Dinner, Cash, Lunch, Debit Card, Indoor Seating, Table Reservation Not Required",4.5
Palmshore,Casual Dining,Chennai,Ramapuram,13.02609169,80.17479714,"Seafood, Biryani, Kebab, North Indian, Chinese, Arabian, BBQ, Juices",1000,"Lunch, Cash, Takeaway Available, No Alcohol Available, Dinner, Delivery, Credit Card, Live Sports Screening, Indoor Seating, Table booking recommended, Valet Parking Available, Air Conditioned",4.6
Pind,Casual Dining,Chennai,Velachery,12.97581504,80.22202816,"North Indian, Chinese",900,"Dinner, Cash, Delivery, Credit Card, Debit Card, Lunch, Takeaway Available, Indoor Seating, Air Conditioned, Pure Veg, Table reservation required, Catering Available, Wifi, Serves Jain Food, Buffet",4.2
Fusilli Reasons,Quick Bites,Chennai,Kilpauk,13.08144068,80.24889752,Italian,400,"Cash, Debit Card, Dinner, Delivery, Credit Card, Lunch, No Alcohol Available, Takeaway Available, Free Parking, Indoor Seating, Air Conditioned, Pure Veg",4.6
10 Downing Street,Pub,Chennai,T. Nagar,13.04296317,80.24428882,"Finger Food, North Indian, Chinese, Continental",1000,"Dinner, Delivery, Credit Card, Lunch, Cash, Takeaway Available, Debit Card, Serves Alcohol, Free Parking, Live Entertainment, Nightlife, Fullbar, Indoor Seating, Air Conditioned, Smoking Area, Karaoke, Live Sports Screening, Valet Parking Available, Live Music, Restricted Entry, Wheelchair Accessible",4.1
Animal Kingdom,Casual Dining,Chennai,Adyar,13.0075318,80.25821116,"North Indian, Chinese, Continental, Thai, South Indian",1300,"Dinner, Takeaway Available, Lunch, Cash, Delivery, Credit Card, Debit Card, Indoor Seating, Air Conditioned, Wheelchair Accessible, Buffet, Table booking recommended",4
Cafe Xtasi,Casual Dining,Puducherry,MG Road,11.93377885,79.83084742,"Italian, Pizza",900,"Lunch, Cash, Takeaway Available, Dinner, Delivery, Credit Card, Debit Card, Indoor Seating, Table booking recommended, Wifi, Brunch, Desserts and Bakes, Rooftop, Air Conditioned, Smoking Area",4
Coal Barbecues,Casual Dining,Chennai,Navallur,12.85154457,80.22635356,"North Indian, Mediterranean, Asian, Arabian, BBQ",1400,"Lunch, Cash, Credit Card, Debit Card, Dinner, Valet Parking Available, Table booking recommended, Indoor Seating, Air Conditioned, Wifi, Buffet, Desserts and Bakes",4.9
That Madras Place,Casual Dining,Chennai,Adyar,13.00586804,80.25076367,"European, Cafe, Italian, Salad, Sandwich, Continental, American, Beverages",800,"Dinner, Cash, Delivery, Credit Card, Lunch, Takeaway Available, Debit Card, Indoor Seating, Digital Payments Accepted, Wheelchair Accessible, Desserts and Bakes, Table booking recommended, Air Conditioned, Smoking Area, Wifi",4.1
Cleo's Grill & Cafe,Casual Dining,Chennai,Adyar,12.99315058,80.25531538,"Chinese, Continental, Steak, North Indian",1100,"Lunch, Cash, Delivery, No Alcohol Available, Dinner, Takeaway Available, Credit Card, Debit Card, Free Wifi, Air Conditioned, Wheelchair Accessible, Vegan Options, Buffet, Digital Payments Accepted, Free Parking, Romantic Dining, Table booking recommended, Kid Friendly, Private Dining Area Available, Wifi, Indoor Seating",4.5
AB's - Absolute Barbecues,Casual Dining,Chennai,Navallur,12.85046489,80.22566121,"BBQ, North Indian, European, Beverages",1400,"Dinner, Takeaway Available, Debit Card, Lunch, Cash, Credit Card, Indoor Seating, Air Conditioned, Digital Payments Accepted",4.9
The Black Pearl,Casual Dining,Chennai,Sholinganallur,12.9014492,80.22684138,"North Indian, European, Mediterranean, Continental, BBQ",1500,"Dinner, Cash, Credit Card, Debit Card, Lunch, Valet Parking Available, Indoor Seating, Variable Menu, Live Music, Table booking recommended, Air Conditioned, Smoking Area, Buffet, Sneakpeek",4.8
Savoury Sea Shell,Casual Dining,Chennai,Anna Nagar East,13.08731766,80.21830458,"Arabian, Chinese, North Indian, Biryani, Kerala, Salad, BBQ, Burger",700,"Dinner, Cash, Takeaway Available, Lunch, Delivery, Credit Card, Debit Card, Indoor Seating, Card Upon Delivery, Buffet, Table booking recommended, Air Conditioned",4.1
Pantry d'or,Casual Dining,Chennai,Anna Nagar East,13.09198557,80.21894764,"Continental, Cafe, Italian, Desserts, Salad",750,"Credit Card, Cash, Delivery, No Alcohol Available, Dinner, Takeaway Available, Debit Card, Breakfast, Lunch, Outdoor Seating, Table reservation required, Wifi, Desserts and Bakes, Air Conditioned, Free Parking, Private Dining Area Available, Halal, Indoor Seating, Digital Payments Accepted",4.3
Azzuri Bay,Casual Dining,Chennai,Adyar,13.01121207,80.25396757,"Italian, Mediterranean, Thai, Seafood, Salad, Momos",1000,"Dinner, Credit Card, Lunch, Cash, Delivery, Debit Card, Rooftop, Air Conditioned, Wheelchair Accessible, Table reservation required",4.2
Mexicano Griller,Casual Dining,Chennai,Nungambakkam,13.06335296,80.23621604,"Mexican, Continental, Tex-Mex, American, Burger, Italian, Desserts, Beverages",800,"Dinner, Takeaway Available, Debit Card, Lunch, Cash, Delivery, Credit Card, Live Sports Screening, Indoor Seating, Table booking recommended, Kid Friendly, Disabled Friendly, Smoking Area, Brunch, Valet Parking Available, Free Wifi, Air Conditioned, Axis Bank - Dining Delights, Buffet",4
Sukkubhai Biriyani,Quick Bites,Chennai,Alandur,12.99825705,80.2014811,"Biryani, North Indian",300,"Lunch, Cash, Debit Card, No Alcohol Available, Dinner, Credit Card, Indoor Seating",4.4
Gastronomer by Double Roti,Cafe,Chennai,Teynampet,13.0339308,80.24694722,"Cafe, American, Fast Food, Burger, Momos",1000,"Dinner, Cash, Delivery, Credit Card, Lunch, Takeaway Available, Debit Card, Indoor Seating, Air Conditioned, Wifi",4.4
Palmshore,Casual Dining,Chennai,Santhome,13.02625632,80.27521167,"Seafood, Biryani, Kebab, North Indian, Chinese, Arabian, BBQ, Juices",1000,"Dinner, Cash, Takeaway Available, Credit Card, Debit Card, Lunch, Delivery, Valet Parking Available, Indoor Seating, Card Upon Delivery, Outdoor Seating, Table booking recommended, Air Conditioned, Halal, Buffet",4.5
Kaidi Kitchen,Casual Dining,Chennai,Mylapore,13.0445019,80.26153073,"Italian, Mexican, Chinese, Thai, North Indian, Salad",1500,"Delivery, Credit Card, No Alcohol Available, Dinner, Cash, Takeaway Available, Debit Card, Lunch, Air Conditioned, Pure Veg, Valet Parking Available, Serves Jain Food, Indoor Seating, Table booking recommended",4.1
Zaitoon,Casual Dining,Chennai,Adyar,12.99673893,80.25608584,"North Indian, Arabian, Chinese",900,"Takeaway Available, Credit Card, Lunch, Delivery, Debit Card, No Alcohol Available, Dinner, Cash, Wifi, Free Parking, Indoor Seating, Table booking recommended, Card Upon Delivery, Catering Available, Halal, Valet Parking Available, Digital Payments Accepted, Air Conditioned",4.1
AB's - Absolute Barbecues,Casual Dining,Chennai,Porur,13.030049,80.16411792,"BBQ, North Indian, European, Beverages",1400,"Takeaway Available, Lunch, Cash, Credit Card, Debit Card, Dinner, Air Conditioned, Buffet, Valet Parking Available, Table booking recommended, Indoor Seating, Digital Payments Accepted",4.8
Zaitoon,Casual Dining,Chennai,Velachery,12.97320163,80.21942709,"North Indian, Arabian, Chinese",900,"Cash, Takeaway Available, Credit Card, Debit Card, Lunch, Delivery, Dinner, Card Upon Delivery, Catering Available, Sodexo, Live Sports Screening, Valet Parking Available, Table booking recommended, Table booking for Groups, Air Conditioned, Kid Friendly, Halal, Buffet, Free Parking, Sports TV, Indoor Seating",4.1
Sandy's Chocolate Laboratory,Cafe,Chennai,Nungambakkam,13.06110823,80.24829201,"Cafe, Continental, Italian, Desserts",1400,"Lunch, Cash, Delivery, Credit Card, Debit Card, No Alcohol Available, Dinner, Takeaway Available, Breakfast, Free Parking, Indoor Seating, Table booking recommended, Valet Parking Available, Air Conditioned, Wheelchair Accessible, Desserts and Bakes",4.4
Guntur Gongura,Casual Dining,Chennai,Sholinganallur,12.9016979,80.22739928,"Biryani, Andhra, North Indian, Chinese",500,"Lunch, Delivery, Credit Card, Debit Card, Dinner, Cash, Takeaway Available, Breakfast, Live Sports Screening, Table booking recommended, Air Conditioned, Indoor Seating, Digital Payments Accepted",3.7
Barbeque Nation,Casual Dining,Chennai,Thuraipakkam,12.94350901,80.23813147,"North Indian, Continental, Kebab, BBQ",1500,"Dinner, Cash, Credit Card, Debit Card, Lunch, Takeaway Available, Indoor Seating, Air Conditioned, Table booking recommended, Kid Friendly, Buffet",4.8
Haunted,Casual Dining,Chennai,Anna Nagar East,13.08625533,80.22054456,"North Indian, Mughlai, Burmese, Beverages",800,"Lunch, Takeaway Available, No Alcohol Available, Dinner, Cash, Delivery, Credit Card, Debit Card, Valet Parking Available, Indoor Seating, Table reservation required, Air Conditioned, Axis Bank - Dining Delights, Smoking Area, Buffet, Group Meal, Outdoor Seating, Digital Payments Accepted, Kid Friendly",3.9
Kipling Cafe,Casual Dining,Chennai,"Kipling, East Coast Road (ECR)",12.89521322,80.25232941,"Continental, Thai, Italian",2400,"Dinner, Delivery, Debit Card, Lunch, Serves Alcohol, Cash, Takeaway Available, Credit Card, Free Parking, Fullbar, Indoor Seating, Rooftop, Table booking recommended, Catering Available, Private Dining Area Available, Wheelchair Accessible, Halal, Live Sports Screening, Outdoor Seating, Romantic Dining, Air Conditioned, Smoking Area, Wifi",4.1
Basil With A Twist,Fine Dining,Chennai,T. Nagar,13.04948875,80.24217993,"Continental, Cafe, Italian, European, Mediterranean, Steak, Pizza, Salad",1500,"Lunch, Cash, Delivery, Takeaway Available, Credit Card, Debit Card, No Alcohol Available, Dinner, Halal, Buffet, Live Sports Screening, Live Music, Romantic Dining, Table booking recommended, Wheelchair Accessible, Valet Parking Available, Indoor Seating, Air Conditioned, Smoking Area, Wifi",4.5
Tovo,Casual Dining,Chennai,Mylapore,13.04470441,80.26177313,"Burger, American, Continental, Steak, Salad",1600,"No Alcohol Available, Dinner, Cash, Takeaway Available, Debit Card, Lunch, Delivery, Credit Card, Indoor Seating, Rooftop, Air Conditioned, Table booking recommended",4.2
Wild Garden Cafe - Amethyst,Cafe,Chennai,Royapettah,13.05722424,80.25920492,"Cafe, Italian, Continental",1400,"Credit Card, Takeaway Available, Dinner, Lunch, Cash, No Alcohol Available, Debit Card, Air Conditioned, All Day Breakfast, Outdoor Seating, Table reservation required, Wifi, Brunch, Pet Friendly",4.4
Supriya Andhra Restaurant,Quick Bites,Chennai,Thuraipakkam,12.92804246,80.23082044,"Biryani, North Indian, Chinese",650,"Lunch, Delivery, Credit Card, Dinner, Cash, Takeaway Available, Debit Card, Free Parking, Air Conditioned, Indoor Seating",4
Ciclo Cafe,Cafe,Chennai,Kotturpuram,13.02237309,80.24241664,"Cafe, Italian, American",1100,"Lunch, Takeaway Available, Debit Card, Dinner, Cash, Delivery, Credit Card, Valet Parking Available, Digital Payments Accepted, Axis Bank - Dining Delights, Wifi, Indoor Seating, Air Conditioned, Desserts and Bakes",4.3
Copper Kitchen,Casual Dining,Chennai,Saligramam,13.05075047,80.20372409,"Seafood, North Indian, Chinese, Chettinad",800,"Dinner, Takeaway Available, Lunch, Cash, Delivery, Credit Card, Live Sports Screening, Indoor Seating, Air Conditioned, Wifi, Buffet, Valet Parking Available, Table booking recommended",4.2
Punjab Grill,Fine Dining,Chennai,Velachery,12.99090717,80.21706875,North Indian,1600,"Credit Card, No Alcohol Available, Dinner, Cash, Delivery, Debit Card, Lunch, Air Conditioned, Wifi, Valet Parking Available, Indoor Seating, Table reservation required",4.4
Writer's Cafe,Cafe,Chennai,Gopalapuram,13.05436837,80.25745008,"Cafe, American, Italian, Beverages",500,"Dinner, Delivery, Cash, Takeaway Available, No Alcohol Available, Credit Card, Lunch, Debit Card, Wifi, Air Conditioned, Indoor Seating, Table reservation required, Digital Payments Accepted",4.4
Paradise,Casual Dining,Chennai,Porur,13.02889922,80.17037921,"Biryani, North Indian",800,"Dinner, Delivery, Credit Card, Lunch, Cash, Takeaway Available, Debit Card, Indoor Seating, Air Conditioned, Table booking recommended",4.2
Grill Box - Unlimited BBQ,Casual Dining,Chennai,Mylapore,13.04421708,80.26869591,"North Indian, South Indian",1200,"Dinner, Cash, Delivery, Lunch, Takeaway Available, Credit Card, Debit Card, Free Parking, Indoor Seating, Air Conditioned, Halal, Buffet, Valet Parking Available, Table reservation required, Kid Friendly, Private Dining Area Available",4.6
Bhangra,Casual Dining,Chennai,"Mayajaal Multiplex, Kanathur",12.84767366,80.23936898,North Indian,800,"Lunch, Mall Parking, Delivery, Credit Card, Debit Card, No Alcohol Available, Dinner, Cash, Takeaway Available, Breakfast, Indoor Seating, Table reservation required, Air Conditioned",4.9
Palmshore,Casual Dining,Chennai,Egmore,13.06940738,80.25708497,"Seafood, Biryani, Kebab, North Indian, Chinese, Arabian, BBQ, Juices",1000,"Lunch, Cash, Delivery, No Alcohol Available, Dinner, Takeaway Available, Credit Card, Debit Card, Live Sports Screening, Indoor Seating, Table booking recommended, Halal, Buffet, Valet Parking Available, Air Conditioned, Wheelchair Accessible",4.5
Rajdhani Thali Restaurant,Casual Dining,Chennai,"Phoenix Market City, Velachery",12.99085555,80.21704361,"Rajasthani, Gujarati, North Indian",1200,"Dinner, Lunch, Delivery, Debit Card, Mall Parking, Takeaway Available, Cash, Credit Card, Air Conditioned, Serves Jain Food, Table reservation required, Indoor Seating, Wheelchair Accessible, All Day Breakfast, Pure Veg",4.1
Barbeque Nation,Casual Dining,Chennai,"The Grand Mall, Velachery",12.97196271,80.220218,"North Indian, Continental, Kebab, BBQ",1500,"Dinner, Cash, Takeaway Available, Lunch, Delivery, Credit Card, Debit Card, Indoor Seating, Air Conditioned, Buffet, Table booking recommended, Kid Friendly",4.7
Dhaba Estd 1986 Delhi,Casual Dining,Chennai,"Ispahani Centre, Nungambakkam",13.05505197,80.24970621,North Indian,1800,"Dinner, Mall Parking, Takeaway Available, Debit Card, Lunch, Cash, Delivery, Credit Card, Indoor Seating, Digital Payments Accepted, Wifi, Table booking recommended, Air Conditioned",4.7
Baker Street,Bakery,Puducherry,MG Road,11.92938748,79.82865002,"Bakery, French",400,"Takeaway Available, Cash, Breakfast, No Alcohol Available, Credit Card, Delivery, Desserts and Bakes, Indoor Seating, Wifi, Air Conditioned",4.4
Grill Box,Casual Dining,Chennai,T. Nagar,13.04525967,80.23587003,"North Indian, Seafood, Chinese, Continental",1200,"Lunch, Delivery, Credit Card, Debit Card, Dinner, Cash, Takeaway Available, Free Parking, Valet Parking Available, Table booking recommended, Kid Friendly, Live Sports Screening, Indoor Seating, Air Conditioned, Buffet, Group Meal",3.8
Crimson Chakra,Casual Dining,Chennai,Adyar,13.01102489,80.25399204,"South Indian, North Indian, Asian, Continental",1000,"Dinner, Cash, Delivery, Credit Card, Debit Card, Lunch, Takeaway Available, Outdoor Seating, Romantic Dining, Air Conditioned, Indoor Seating, Table booking recommended, Catering Available, Wheelchair Accessible, Buffet, Group Meal",3.9
Barbeque Nation,Casual Dining,Chennai,"Hotel Bhimaas, Vadapalani",13.05240249,80.21234572,"North Indian, Continental, Kebab, BBQ",1500,"Dinner, Cash, Lunch, Takeaway Available, Credit Card, Debit Card, Indoor Seating, Air Conditioned, Halal, Buffet, Table booking recommended, Kid Friendly",4.2
Momo Sa-Khang by Kailash Kitchen,Quick Bites,Chennai,Choolaimedu,13.06555847,80.2311641,"Momos, Chinese",350,"Lunch, Cash, Takeaway Available, Debit Card, Delivery, Credit Card, Free Parking, Indoor Seating",4.8
"3B's - Buddies, Bar & Barbecue",Casual Dining,Chennai,T. Nagar,13.04537268,80.23300409,North Indian,1200,"Takeaway Available, Dinner, Lunch, Cash, Debit Card, Credit Card, Serves Alcohol, Live Entertainment, Fullbar, Digital Payments Accepted, Wifi, Live Sports Screening, Live Music, Air Conditioned, Smoking Area, Nightlife, Indoor Seating, Resto Bar, DJ, Valet Parking Available, Table booking recommended",4.5
Paragon,Food Court,Kochi,"LuLu Mall, Edappally",10.02736389,76.30825833,"Kerala, South Indian, Continental, North Indian, Seafood, Chinese",900,"Delivery, Lunch, Takeaway Available, Dinner, Mall Parking, Cash, Breakfast, Credit Card, No Alcohol Available, Indoor Seating, Wheelchair Accessible",4.5
Blind Ch3mistry,Cafe,Chennai,Besant Nagar,13.00066372,80.27035821,"Cafe, Continental, Italian, Desserts",700,"Lunch, Cash, Takeaway Available, Debit Card, Dinner, Delivery, Credit Card, Live Sports Screening, Free Wifi, Digital Payments Accepted, Indoor Seating, Table reservation required, Air Conditioned, Desserts and Bakes",4.5
Kobe Sizzlers,Casual Dining,Chennai,"Phoenix Market City, Velachery",12.99208,80.21713279,"Continental, Italian, Steak, Chinese",1100,"Delivery, Credit Card, Lunch, Debit Card, Mall Parking, Dinner, Takeaway Available, Cash, Air Conditioned, Indoor Seating, Table reservation required",4.5
Le Cafe,Cafe,Puducherry,White Town,11.93159679,79.83566064,Cafe,450,"No Alcohol Available, Dinner, Lunch, Takeaway Available, Cash, Breakfast, Table Reservation Not Required, Outdoor Seating",3.5
Prems Graama Bhojanam,Casual Dining,Chennai,Adyar,13.00624895,80.25397964,South Indian,300,"Dinner, Cash, Takeaway Available, Credit Card, Lunch, Delivery, Debit Card, Indoor Seating, Pure Veg, Digital Payments Accepted, Gluten Free Options, Vegan Options",4.7
Maplai,Casual Dining,Chennai,Neelangarai,12.94389099,80.25365945,"Chettinad, Biryani, South Indian",1000,"Cash, Debit Card, Dinner, No Alcohol Available, Takeaway Available, Credit Card, Lunch, Indoor Seating, Wifi, Free Parking, Air Conditioned, Table reservation required, Valet Parking Available",4.4
Amadora Gourmet Ice Cream & Sorbet,Dessert Parlour,Chennai,Nungambakkam,13.06096093,80.24948694,Desserts,500,"No Alcohol Available, Cash, Takeaway Available, Debit Card, Delivery, Credit Card, Valet Parking Available, Outdoor Seating, Air Conditioned, Desserts and Bakes",4.6
Jonah's Bistro,Casual Dining,Chennai,Besant Nagar,12.99773141,80.26751641,"Continental, European, Italian",800,"Dinner, Cash, Takeaway Available, Breakfast, Lunch, Delivery, Credit Card, Debit Card, Indoor Seating, Digital Payments Accepted, Table reservation required, Air Conditioned",4.2
Nasi And Mee,Casual Dining,Chennai,Nungambakkam,13.06076399,80.24971392,"Singaporean, Malaysian, Chinese, Asian, Thai, Momos",1200,"No Alcohol Available, Dinner, Takeaway Available, Debit Card, Lunch, Cash, Delivery, Credit Card, Valet Parking Available, Sneakpeek, Wifi, Indoor Seating, Air Conditioned",4.6
Mathsya,Casual Dining,Chennai,Egmore,13.07501065,80.25781788,"South Indian, North Indian, Chinese, Beverages",900,"Cash, Debit Card, Delivery, No Alcohol Available, Dinner, Credit Card, Takeaway Available, Breakfast, Lunch, Indoor Seating, Pure Veg, Valet Parking Available, Air Conditioned, Table booking recommended",4.2
Cream Centre,Casual Dining,Chennai,Nungambakkam,13.06695304,80.24602052,"North Indian, Italian, Mexican",1600,"No Alcohol Available, Debit Card, Delivery, Cash, Dinner, Credit Card, Lunch, Takeaway Available, Valet Parking Available, Pure Veg, Serves Jain Food, Digital Payments Accepted, Air Conditioned, Indoor Seating, Table Reservation Not Required",4.2
Mash Resto Cafe,Casual Dining,Chennai,Besant Nagar,13.00104594,80.27125876,"Fast Food, Continental, Italian",800,"Credit Card, Cash, Delivery, Dinner, Lunch, Debit Card, No Alcohol Available, Takeaway Available, Indoor Seating, Rooftop, Outdoor Seating, Romantic Dining, Free Parking, Wifi, Table booking recommended, Air Conditioned",3.9
Lloyd's Tea House,Cafe,Chennai,Gopalapuram,13.05048754,80.25585484,"Cafe, Italian, European, Asian",1000,"Dinner, Cash, Delivery, Credit Card, Lunch, Takeaway Available, Debit Card, Indoor Seating, Table booking recommended, Free Wifi, Air Conditioned, Wifi",4.3
Sangeetha Veg Restaurant,Casual Dining,Chennai,Thuraipakkam,12.94409489,80.23793433,"South Indian, North Indian, Chinese",500,"Dinner, Delivery, Credit Card, Debit Card, Lunch, Cash, Takeaway Available, Breakfast, Indoor Seating, Digital Payments Accepted, Catering Available, Pure Veg, Table booking recommended, Air Conditioned, Serves Jain Food",4.2
Murugan Idli Shop,Quick Bites,Chennai,Besant Nagar,12.99552267,80.27041923,South Indian,300,"Dinner, Cash, Takeaway Available, Credit Card, Debit Card, Lunch, Delivery, Breakfast, Indoor Seating, Air Conditioned, Pure Veg, Free Parking",4.2
Sangeetha Veg Restaurant,Casual Dining,Chennai,T. Nagar,13.04313661,80.23666598,"South Indian, North Indian, Chinese",800,"Lunch, Takeaway Available, Cash, No Alcohol Available, Credit Card, Debit Card, Delivery, Dinner, Breakfast, Indoor Seating, Table reservation required, Pure Veg, Serves Jain Food, Air Conditioned, Digital Payments Accepted",4.5
Salt,Casual Dining,Chennai,"Forum Vijaya Mall, Vadapalani",13.05094579,80.20949353,"North Indian, Seafood, Biryani",1200,"Takeaway Available, Lunch, Mall Parking, Delivery, Credit Card, Debit Card, No Alcohol Available, Dinner, Cash, Buffet, Indoor Seating, Table booking recommended, Wheelchair Accessible, Air Conditioned",4.3
Dindigul Thalappakatti,Casual Dining,Chennai,Thuraipakkam,12.92552822,80.23058105,"South Indian, Biryani, Chinese, North Indian",800,"Credit Card, Dinner, Debit Card, Lunch, Delivery, Cash, Takeaway Available, No Alcohol Available, Air Conditioned, Digital Payments Accepted, Catering Available, Halal, Indoor Seating, Table booking recommended, Wifi",3.9
Rasavid,Casual Dining,Chennai,Karapakkam,12.91517788,80.22951622,"Andhra, Hyderabadi, Chinese, North Indian, Biryani",800,"Debit Card, Dinner, Takeaway Available, Lunch, Delivery, Cash, No Alcohol Available, Credit Card, Table booking recommended, Indoor Seating, Digital Payments Accepted, Air Conditioned, Catering Available",3.6
Moonrakers,Casual Dining,Chennai,Mahabalipuram,12.61957162,80.1963155,"Seafood, North Indian, Chinese, Continental, Italian",700,"Cash, Debit Card, No Alcohol Available, Dinner, Credit Card, Lunch, Indoor Seating, Wifi, Outdoor Seating, Air Conditioned, Rooftop, Table reservation required",3.7
Jalpaan,Casual Dining,Chennai,Nungambakkam,13.05743752,80.255365,"North Indian, Chinese, South Indian",1100,"Cash, Delivery, Credit Card, Debit Card, Lunch, Dinner, Takeaway Available, Table reservation required, Pure Veg, Valet Parking Available, Air Conditioned, Wifi, Serves Jain Food, Buffet, Indoor Seating",4.3
Supriya Andhra Restaurant,Quick Bites,Chennai,Egatoor,12.83907226,80.22744656,"Biryani, North Indian, Chinese",650,"Cash, Debit Card, Delivery, Lunch, Credit Card, Takeaway Available, Dinner, Indoor Seating",3.8
Al Reem Kuzhimandi,Casual Dining,Kochi,Nedumbassery,10.144616,76.353207,"Arabian, Biryani",400,"Cash, Lunch, No Alcohol Available, Dinner, Indoor Seating, Air Conditioned",4.5
Tuscana Pizzeria,Casual Dining,Chennai,Nungambakkam,13.06135645,80.24960462,"Italian, Pizza",1200,"Takeaway Available, Debit Card, Lunch, Dinner, Cash, Delivery, Credit Card, Table booking recommended, Air Conditioned, Wheelchair Accessible, Valet Parking Available, Digital Payments Accepted, Indoor Seating",4.1
Amelie's,Cafe,Chennai,Alwarpet,13.0396959,80.25583941,"Cafe, Continental, Italian",900,"Cash, Dinner, Delivery, Lunch, Debit Card, Takeaway Available, Credit Card, No Alcohol Available, Valet Parking Available, Indoor Seating, Air Conditioned, Desserts and Bakes, All Day Breakfast, Table booking recommended",4.4
Kashi Art Cafe,Casual Dining,Kochi,Fort Kochi,9.966783333,76.24298056,"European, Cafe",600,"Credit Card, No Alcohol Available, Dinner, Lunch, Cash, Debit Card, Wifi, Outdoor Seating",4.5
Copper Kitchen,Casual Dining,Chennai,Kotturpuram,13.01728378,80.24116471,"Seafood, North Indian, Chinese, Chettinad",800,"Dinner, Takeaway Available, Credit Card, Lunch, Cash, Delivery, Debit Card, Indoor Seating, Table booking recommended, Air Conditioned, Wifi, Free Wifi, Digital Payments Accepted, Halal",4.3
Little Italy,Casual Dining,Chennai,Besant Nagar,12.99642564,80.26863322,"Italian, Mexican, Salad",1500,"Lunch, Cash, Delivery, Credit Card, Debit Card, No Alcohol Available, Dinner, Takeaway Available, Valet Parking Available, Indoor Seating, Table booking recommended, Pure Veg, Outdoor Seating, Air Conditioned, Wheelchair Accessible, Serves Jain Food, Buffet",4.4
Cream Centre,Casual Dining,Chennai,RA Puram,13.02684722,80.25503609,"North Indian, Italian, Mexican",1600,"Cash, No Alcohol Available, Dinner, Credit Card, Delivery, Lunch, Debit Card, Indoor Seating, Wheelchair Accessible, Pure Veg, Table booking not available, Air Conditioned, Serves Jain Food",4.3
The Waterfall Restaurant,Casual Dining,Chennai,Vadapalani,13.05459634,80.20573776,"Andhra, Chinese, North Indian, South Indian",800,"No Alcohol Available, Dinner, Delivery, Credit Card, Lunch, Cash, Takeaway Available, Debit Card, Free Parking, Live Music, Air Conditioned, Disabled Friendly, Private Dining Area Available, Valet Parking Available, Indoor Seating, Table reservation required, Kid Friendly, Wheelchair Accessible",4.1
VB Signature - Progressive Veg Restaurant,Casual Dining,Chennai,Nungambakkam,13.06171702,80.24563294,"North Indian, South Indian, Chinese, Asian",1000,"Cash, Delivery, Credit Card, Breakfast, Lunch, Debit Card, Dinner, Takeaway Available, No Alcohol Available, Pure Veg, Table booking recommended, Air Conditioned, Indoor Seating, Live Sports Screening, Valet Parking Available, Digital Payments Accepted",4.6
Royal Sandwich Shop,Quick Bites,Chennai,Alwarpet,13.03300054,80.25290575,"Sandwich, Fast Food",200,"Cash, Lunch, Dinner, Debit Card, Delivery, No Alcohol Available, Credit Card, Takeaway Available, Digital Payments Accepted, Indoor Seating, Halal",4.4
Mamagoto,Casual Dining,Chennai,Nungambakkam,13.06058077,80.2506946,"Japanese, Salad, Vietnamese, Malaysian",2000,"Lunch, Cash, Delivery, Credit Card, No Alcohol Available, Dinner, Takeaway Available, Debit Card, Indoor Seating, Table reservation required, Air Conditioned, Wifi",4.6
Mainland China,Casual Dining,Chennai,"Phoenix Market City, Velachery",12.9908353,80.2171633,"Chinese, Asian, Sushi, Japanese, Thai",1800,"Lunch, Mall Parking, Delivery, Credit Card, Dinner, Cash, Takeaway Available, Debit Card, Valet Parking Available, Table booking recommended, Indoor Seating, Air Conditioned",4.7
27 Culinary Street,Casual Dining,Chennai,Mylapore,13.04403777,80.26773535,"Chinese, South Indian, North Indian, Mongolian",1300,"Lunch, Delivery, Credit Card, Debit Card, Dinner, Cash, Takeaway Available, Valet Parking Available, Table booking recommended, Air Conditioned, Sneakpeek, Indoor Seating, Digital Payments Accepted, Kid Friendly, Buffet",4.4
Big Bang Theory - Bar & Kitchen,Bar,Chennai,Kodambakkam,13.04670105,80.21869786,"American, Continental",1500,"Takeaway Available, Dinner, Debit Card, Serves Alcohol, Lunch, Cash, Credit Card, Live Entertainment, Nightlife, Fullbar, Indoor Seating, Restricted Entry, Resto Bar, Smoking Area, DJ, Live Sports Screening, Valet Parking Available, Live Music, Table booking recommended, Air Conditioned",4.1
Bombay Brasserie,Casual Dining,Chennai,Adyar,13.00676738,80.25639731,"North Indian, Maharashtrian, Modern Indian",1500,"Dinner, Delivery, Credit Card, Lunch, Cash, Takeaway Available, Debit Card, Indoor Seating, Air Conditioned, Table reservation required",4.3
Brick House Bistro,Casual Dining,Chennai,Anna Nagar East,13.09046379,80.21573704,"American, Pizza, Continental, Sandwich, Beverages, Burger",900,"Cash, Lunch, Credit Card, Dinner, Takeaway Available, Delivery, No Alcohol Available, Debit Card, Table Reservation Not Required, Air Conditioned, Digital Payments Accepted, Indoor Seating, Kid Friendly, Outdoor Seating",3.8
Zaitoon,Casual Dining,Chennai,Anna Nagar East,13.08330705,80.22556566,"North Indian, Arabian, Chinese",900,"Cash, Lunch, Takeaway Available, Credit Card, Delivery, No Alcohol Available, Dinner, Debit Card, Valet Parking Available, Air Conditioned, Halal, Table booking recommended, Card Upon Delivery, Kid Friendly, Sports TV, Free Parking, Indoor Seating, Catering Available, Live Sports Screening, Table reservation required, Table booking for Groups",4
Madras Pavilion - ITC Grand Chola,Fine Dining,Chennai,"ITC Grand Chola, Guindy",13.01162008,80.22010099,"North Indian, Chinese, Continental, Desserts",4000,"Breakfast, Debit Card, Dinner, Cash, Credit Card, Valet Parking Available, Indoor Seating, 4/5 Star, Air Conditioned, Luxury Dining, Wifi, Fullbar, Table booking recommended, Wheelchair Accessible, Brunch, Desserts and Bakes",4.5
Arab Street,Casual Dining,Chennai,Ashok Nagar,13.04535308,80.2183314,"Arabian, Biryani, Chinese, North Indian, Italian",800,"No Alcohol Available, Dinner, Delivery, Credit Card, Lunch, Cash, Takeaway Available, Debit Card, Valet Parking Available, Air Conditioned, Indoor Seating, Table reservation required",4
Dindigul Thalappakatti,Casual Dining,Chennai,Velachery,12.97739339,80.21925442,"South Indian, Biryani, Chinese, North Indian",800,"Lunch, Delivery, Credit Card, No Alcohol Available, Dinner, Cash, Takeaway Available, Debit Card, Indoor Seating, Table booking recommended, Catering Available, Air Conditioned",3.9
Waf O'Bel,Dessert Parlour,Chennai,Chetpet,13.07027579,80.2385737,"Desserts, Beverages",400,"Lunch, Delivery, Debit Card, Dinner, Cash, Takeaway Available, Credit Card, Free Parking, Air Conditioned, Pure Veg, Group Meal, Indoor Seating, Desserts and Bakes",4.6
Sapthagiri Tiffin Centre,Quick Bites,Chennai,T. Nagar,13.04004213,80.23615099,"South Indian, Chinese",200,"Dinner, Delivery, Lunch, Cash, Takeaway Available, Breakfast, Free Parking, Indoor Seating, Pure Veg, Outdoor Seating",4.2
Coco Jaunt 1728,Cafe,Chennai,Anna Nagar East,13.09020515,80.21746606,"Cafe, Fast Food",700,"Lunch, Takeaway Available, Breakfast, No Alcohol Available, Dinner, Cash, Delivery, Credit Card, Debit Card, Indoor Seating, Table booking recommended, Air Conditioned, Wifi, Desserts and Bakes, Digital Payments Accepted",4.1
Dhe Puttu,Casual Dining,Kochi,Edappally,10.02068333,76.31063056,Kerala,600,"Cash, Takeaway Available, No Alcohol Available, Dinner, Credit Card, Delivery, Lunch, Indoor Seating, Table booking recommended",4.4
Honey Spice,Casual Dining,Chennai,GST Road,12.87075703,80.07666014,South Indian,500,"Dinner, Delivery, Credit Card, Lunch, Cash, Takeaway Available, Debit Card, Live Sports Screening, Indoor Seating, Air Conditioned, Valet Parking Available, Table booking recommended",3.9
Cream Stone,Dessert Parlour,Chennai,Alwarpet,13.0411481,80.25847837,"Desserts, Ice Cream",350,"Delivery, Debit Card, Cash, Takeaway Available, Credit Card, Indoor Seating, Air Conditioned, Pure Veg, Digital Payments Accepted, Desserts and Bakes",4.4
Sangeetha Veg Restaurant,Casual Dining,Chennai,Adyar,13.00707413,80.25007032,"North Indian, Chinese",500,"Cash, Breakfast, Credit Card, No Alcohol Available, Debit Card, Delivery, Lunch, Takeaway Available, Dinner, Air Conditioned, Table reservation required, Catering Available, Digital Payments Accepted, Valet Parking Available, Pure Veg, Indoor Seating, Serves Jain Food",4.1
Orange Wok,Casual Dining,Chennai,Velachery,12.98726907,80.21849401,"Asian, Momos, Beverages",1000,"Lunch, Cash, Takeaway Available, Debit Card, Dinner, Delivery, Credit Card, Free Parking, Table booking recommended, Indoor Seating, Air Conditioned",4.2
Food @ Finger,Quick Bites,Chennai,Anna Nagar West,13.08743196,80.19311763,"North Indian, Chinese, BBQ, North Eastern",700,"Lunch, Takeaway Available, Cash, Dinner, Credit Card, No Alcohol Available, Debit Card, Delivery, Indoor Seating, Air Conditioned, Digital Payments Accepted, Outdoor Seating, Halal, Free Parking",3.8
Fazari,Casual Dining,Chennai,Chromepet,12.9533563,80.13953447,Arabian,750,"No Alcohol Available, Dinner, Delivery, Credit Card, Debit Card, Lunch, Cash, Takeaway Available, Valet Parking Available, Air Conditioned, Indoor Seating, Table booking recommended, Digital Payments Accepted",4
Krishnavillasam - The Home Of Classics,Casual Dining,Chennai,Nungambakkam,13.06366519,80.24784945,"South Indian, North Indian, Chinese, Kerala",850,"Dinner, Debit Card, Breakfast, Credit Card, No Alcohol Available, Cash, Delivery, Lunch, Wheelchair Accessible, Table booking recommended, Valet Parking Available, Indoor Seating, Pure Veg, Air Conditioned, Digital Payments Accepted",3.6
East Coast at Madras Square,Casual Dining,Chennai,Neelangarai,12.95591829,80.25891859,"European, Continental, Italian, North Indian",1000,"Cash, Debit Card, Dinner, Takeaway Available, Credit Card, Lunch, Serves Alcohol, Table booking recommended, Free Parking, Live Sports Screening, Outdoor Seating, Wine, Serves Cocktails, Kid Friendly, Wifi, Sports TV, Resto Bar, Indoor Seating, Fullbar, Beer, Air Conditioned, Smoking Area, Free Wifi",4.5
Shree Mithai,Sweet Shop,Chennai,Anna Nagar East,13.08209089,80.21197557,"Mithai, Street Food, Fast Food",300,"Dinner, Delivery, Credit Card, Lunch, Cash, Takeaway Available, Debit Card, Free Parking, Pre-Ordering Required, Air Conditioned, Pure Veg, Desserts and Bakes, Indoor Seating, Serves Jain Food",4.4
Villa Shanti,Casual Dining,Puducherry,"Villa Shanti, White Town",11.929698,79.833191,Continental,1500,"Takeaway Available, Serves Alcohol, Credit Card, Lunch, Dinner, Table booking recommended, Fullbar, Air Conditioned, Indoor Seating",4.4
Jalpaan,Casual Dining,Chennai,Adyar,13.00619309,80.25424853,"North Indian, Italian",1200,"No Alcohol Available, Dinner, Takeaway Available, Credit Card, Debit Card, Lunch, Cash, Delivery, Serves Jain Food, Buffet, Valet Parking Available, Air Conditioned, Wifi, Indoor Seating, Table booking recommended, Pure Veg",3.8
Hotel Paramount,Casual Dining,Chennai,Kilpauk,13.08121828,80.2477492,"North Indian, Chinese, Seafood, South Indian, Biryani",500,"Breakfast, Debit Card, No Alcohol Available, Delivery, Cash, Lunch, Credit Card, Dinner, Takeaway Available, Indoor Seating, Air Conditioned, Table booking not available, Catering Available, Halal, Digital Payments Accepted",4.1
Barbeque Nation,Casual Dining,Kochi,Kacheripady,9.982933,76.282294,"European, North Indian, Mediterranean, American",1500,"Cash, Debit Card, No Alcohol Available, Dinner, Credit Card, Lunch, Air Conditioned, Table booking recommended, Indoor Seating, Buffet",4.9
Hub at ECR,Casual Dining,Chennai,East Coast Road (ECR),12.93495501,80.25215976,"Continental, North Indian, Italian, Pizza, Kebab",2000,"Lunch, Serves Alcohol, Delivery, Credit Card, Dinner, Cash, Takeaway Available, Debit Card, DJ, Live Entertainment, Valet Parking Available, Beer, Indoor Seating, Restricted Entry, Kid Friendly, Disabled Friendly, Wheelchair Accessible, Desserts and Bakes, Free Parking, Live Sports Screening, Fullbar, Live Music, Serves Cocktails, Table booking recommended, Air Conditioned, Resto Bar, Wifi, Group Meal",4.4
The Moon And Sixpence - Hablis Hotel,Bar,Chennai,"Hablis Hotel, Guindy",13.00753506,80.20831939,"Irish, Finger Food",2500,"Lunch, Dinner, Cash, Debit Card, Credit Card, Nightlife, Valet Parking Available, Fullbar, Smoking Area, Air Conditioned, 4/5 Star, Indoor Seating, Table booking recommended, Wheelchair Accessible, Luxury Dining, Beer, Live Music, Live Sports Screening",4.4
KFC,Quick Bites,Chennai,Thuraipakkam,12.93470602,80.23403004,"Burger, Fast Food",500,"Dinner, Lunch, Debit Card, Cash, Credit Card, Takeaway Available, No Alcohol Available, Delivery, Card Upon Delivery, Wifi, Indoor Seating, Digital Payments Accepted, Free Parking, Air Conditioned, Halal",3.1
Sree Akshayam,Casual Dining,Chennai,Anna Nagar East,13.08218102,80.2087757,"South Indian, North Indian, Chinese",700,"Dinner, Cash, Delivery, No Alcohol Available, Lunch, Debit Card, Credit Card, Takeaway Available, Breakfast, Table Reservation Not Required, Indoor Seating, Pure Veg, Air Conditioned",4.1
Shaack,Casual Dining,Chennai,Anna Nagar East,13.08459374,80.22292368,"Asian, Continental, Italian, Chinese, South Indian, Momos, Desserts, North Indian",900,"Cash, Debit Card, Takeaway Available, Dinner, Credit Card, Delivery, No Alcohol Available, Lunch, Air Conditioned, Indoor Seating, Table booking recommended, Free Parking",4
Crisp Cafe,Cafe,Chennai,Nungambakkam,13.06488372,80.23915675,"Cafe, Fast Food",1000,"Cash, Breakfast, Credit Card, No Alcohol Available, Debit Card, Lunch, Takeaway Available, Dinner, Air Conditioned, Table reservation required, Indoor Seating",4.1
The Flying Elephant - Park Hyatt,Fine Dining,Chennai,"Park Hyatt, Guindy",13.01095008,80.22331662,"Turkish, Continental, Italian, North Indian, Asian, Thai, Salad",3500,"Cash, Lunch, Debit Card, Credit Card, Dinner, Live Music, Valet Parking Available, Indoor Seating, Luxury Dining, Wheelchair Accessible, Brunch, Seaside, 4/5 Star, Outdoor Seating, Air Conditioned, Smoking Area, Wifi, Live Sports Screening, Fullbar, Table booking recommended",4.4
Zuka,Bakery,Puducherry,MG Road,11.92982738,79.83019866,"Desserts, Bakery",300,"Credit Card, Cash, Takeaway Available, Debit Card, Indoor Seating, Air Conditioned, Desserts and Bakes",4.8
Faruuzi Multi - Cuisine,Casual Dining,Chennai,GST Road,12.87090771,80.07665344,"North Indian, Chinese, Arabian, Beverages",1000,"Lunch, Cash, Takeaway Available, Debit Card, Dinner, Delivery, Credit Card, Free Parking, Table reservation required, Indoor Seating, Air Conditioned",4.2
Fromage,Cafe,Chennai,MRC Nagar,13.01716356,80.27070355,"Cafe, Italian, French, European",1000,"Dinner, Delivery, Credit Card, Lunch, Cash, Takeaway Available, Debit Card, Free Parking, Indoor Seating, Air Conditioned, Fullbar, Table booking recommended",4.5
Hoppipola,Bar,Chennai,"The Spring Hotel, Nungambakkam",13.0529352,80.24825044,"Continental, Mediterranean, American",1400,"Lunch, Cash, Credit Card, Dinner, Debit Card, Serves Alcohol, Table booking recommended, Digital Payments Accepted, Live Sports Screening, Fullbar, Indoor Seating, Restricted Entry, Air Conditioned, Smoking Area, Valet Parking Available",4.1
Ratna Cafe,Casual Dining,Chennai,Triplicane,13.0586293,80.27415689,South Indian,300,"Dinner, Cash, Takeaway Available, Credit Card, Debit Card, Lunch, Delivery, Breakfast, Indoor Seating, Air Conditioned, Pure Veg",4.3
Chamiers Cafe,Cafe,Chennai,RA Puram,13.02795554,80.25021248,"Cafe, Italian, Continental, Salad, Juices",1000,"Lunch, Delivery, Credit Card, Breakfast, Dinner, Cash, Takeaway Available, Debit Card, Outdoor Seating, Air Conditioned, Pet Friendly, Indoor Seating, Wifi, All Day Breakfast",4.3
Eatza Pizza,Quick Bites,Chennai,Nungambakkam,13.06065882,80.24551257,"Pizza, Fast Food",500,"Dinner, Cash, Credit Card, Lunch, Delivery, Debit Card, Takeaway Available, Indoor Seating, Free Parking, Air Conditioned",3.7
Food @ Finger,Casual Dining,Chennai,Royapuram,13.10930709,80.29182494,"North Indian, Chinese, BBQ, North Eastern",700,"No Alcohol Available, Dinner, Delivery, Debit Card, Lunch, Cash, Takeaway Available, Credit Card, Free Parking, Table Reservation Not Required, Halal, Indoor Seating, Air Conditioned",3.8
Kabab Corner,Quick Bites,Chennai,Egmore,13.05990176,80.2542207,"Kebab, Rolls",450,"Delivery, Credit Card, Dinner, Cash, Takeaway Available, Debit Card, No Alcohol Available, Catering Available, Halal, Indoor Seating",4.5
The Marina,Casual Dining,Chennai,Nungambakkam,13.06711046,80.25213361,"Seafood, North Indian, Chinese",1600,"Delivery, Dinner, Takeaway Available, Cash, No Alcohol Available, Credit Card, Lunch, Debit Card, Indoor Seating, Table reservation required, Air Conditioned",4.5
Sangeetha Veg Restaurant,Casual Dining,Chennai,Velachery,12.9884295,80.21828916,"South Indian, North Indian, Chinese",650,"Dinner, Cash, Takeaway Available, Breakfast, Lunch, Delivery, Credit Card, Indoor Seating, Air Conditioned, Serves Jain Food, Table reservation required, Catering Available, Pure Veg",4.1
Zaitoon,Casual Dining,Chennai,Nungambakkam,13.05990012,80.25216646,"North Indian, Arabian, Chinese",900,"Delivery, Debit Card, Lunch, Takeaway Available, Credit Card, No Alcohol Available, Dinner, Cash, Halal, Free Parking, Indoor Seating, Table booking recommended, Card Upon Delivery, Catering Available, Valet Parking Available, Digital Payments Accepted, Air Conditioned",4
Murugan Idli Shop,Quick Bites,Chennai,T. Nagar,13.04232004,80.23539025,South Indian,300,"Takeaway Available, Lunch, Credit Card, No Alcohol Available, Cash, Breakfast, Debit Card, Delivery, Dinner, Catering Available, Indoor Seating, Pure Veg, Free Parking, Air Conditioned, Table booking not available, Digital Payments Accepted",4.3
Little Italy,Casual Dining,Chennai,Nungambakkam,13.06082768,80.24749573,"Italian, Mexican, Salad",1500,"Takeaway Available, Lunch, Dinner, Credit Card, Cash, Delivery, No Alcohol Available, Debit Card, Serves Jain Food, Brunch, Buffet, Table booking recommended, Indoor Seating, Air Conditioned, Pure Veg",4.1
Mezze,Casual Dining,Chennai,RA Puram,13.02480926,80.25345426,Middle Eastern,700,"Dinner, Takeaway Available, Debit Card, Lunch, Cash, Credit Card, Indoor Seating, Air Conditioned, Digital Payments Accepted",4.6
#Dilliwaala6,Casual Dining,Puducherry,White Town,11.93634141,79.83512621,"Street Food, Continental, North Indian, Chinese, Salad, Finger Food",800,"Dinner, Delivery, Breakfast, No Alcohol Available, Cash, Takeaway Available, Credit Card, Debit Card, Lunch, Air Conditioned, Pure Veg, Vegan Options, Free Parking, Indoor Seating, Table booking recommended, Serves Jain Food, Outdoor Seating, Rooftop",4.2
Samco,Casual Dining,Chennai,Velachery,12.99293594,80.2187448,"Chinese, North Indian, Kerala, South Indian",800,"Lunch, Delivery, Credit Card, Debit Card, Dinner, Cash, Takeaway Available, Valet Parking Available, Table booking recommended, Air Conditioned, Indoor Seating, Digital Payments Accepted, All Day Breakfast, Buffet",4.2
Sigree,Casual Dining,Chennai,Adyar,13.00620648,80.25482118,North Indian,1500,"No Alcohol Available, Dinner, Cash, Takeaway Available, Lunch, Delivery, Credit Card, Debit Card, Valet Parking Available, Air Conditioned, Wifi, Buffet, Indoor Seating, Table booking recommended, Kid Friendly, Private Dining Area Available",4
SS Hyderabad Biryani,Casual Dining,Chennai,Kodambakkam,13.0532605,80.22398684,"North Indian, Chinese, Biryani",500,"Credit Card, No Alcohol Available, Dinner, Delivery, Lunch, Cash, Debit Card, Takeaway Available, Table Reservation Not Required, Digital Payments Accepted, Indoor Seating, Air Conditioned",4.2
Paradise,Quick Bites,Chennai,Thiruvanmiyur,12.9898,80.25577638,"Biryani, North Indian",900,"Cash, Takeaway Available, Lunch, Delivery, Debit Card, No Alcohol Available, Credit Card, Dinner, Air Conditioned, Table Reservation Not Required, Indoor Seating",4.2
Olive and Basil,Casual Dining,Chennai,Adyar,13.00640379,80.25272973,"Thai, Chinese, Continental, Momos, North Indian",600,"Dinner, Cash, Delivery, Credit Card, Lunch, Takeaway Available, Debit Card, Indoor Seating, Digital Payments Accepted, Table reservation required, Air Conditioned, Wifi",4.1
Cocoa Tree,Casual Dining,Kochi,Panampilly Nagar,9.956865927,76.29670512,"Italian, Seafood, Mediterranean, Desserts, Cafe",1000,"Cash, Lunch, Credit Card, Takeaway Available, No Alcohol Available, Dinner, Indoor Seating, Desserts and Bakes, Air Conditioned",4.5
Zaitoon,Casual Dining,Chennai,Royapettah,13.0585225,80.26539478,"North Indian, Arabian, Chinese",900,"Dinner, Delivery, Debit Card, Lunch, Cash, Takeaway Available, Credit Card, Free Parking, Indoor Seating, Table booking for Groups, Air Conditioned, Halal, Valet Parking Available, Table booking recommended, Card Upon Delivery",4
Margaritas,Casual Dining,Puducherry,White Town,11.93775455,79.83308304,"Mexican, Continental, American, Desserts, Finger Food, Ice Cream, Juices, Salad",600,"Credit Card, Lunch, Delivery, Cash, Debit Card, Dinner, No Alcohol Available, Takeaway Available, Table booking recommended, Free Parking, Indoor Seating, Desserts and Bakes, Air Conditioned, Private Dining Area Available, Live Music, Free Wifi, Kid Friendly, Wifi",4.3
Shree Mithai,Sweet Shop,Chennai,Chetpet,13.07213473,80.2477425,"Mithai, Street Food, Fast Food",300,"Dinner, Cash, Takeaway Available, Breakfast, Debit Card, Lunch, Delivery, Credit Card, Desserts and Bakes, Free Parking, Indoor Seating, Air Conditioned, Serves Jain Food, Valet Parking Available, Digital Payments Accepted, Catering Available, Pure Veg",4.6
Night Out,,Coimbatore,RS Puram,11.00954373,76.95638839,North Indian,600,"Cash, Takeaway Available, No Seating Available, Dinner, Delivery, No Alcohol Available, Lunch",4.1
Va Pho - Asian Canteen,Casual Dining,Chennai,Gopalapuram,13.04554611,80.25784805,"Asian, Momos",1400,"Cash, Takeaway Available, Debit Card, Lunch, Delivery, Credit Card, Dinner, Valet Parking Available, Table reservation required, Indoor Seating, Air Conditioned",4.5
The Brew Room - The Savera Hotel,Cafe,Chennai,"The Savera Hotel, RK Salai (Cathedral Road)",13.04576169,80.26108649,"Cafe, Continental, Italian, Sandwich, Salad, Desserts",1100,"Takeaway Available, Lunch, Cash, Debit Card, Breakfast, No Alcohol Available, Dinner, Credit Card, Air Conditioned, Wheelchair Accessible, Desserts and Bakes, Outdoor Seating, Smoking Area, Wifi, Table booking recommended, Valet Parking Available, Indoor Seating",4.4
Cafe Central,Cafe,Chennai,T. Nagar,13.04129247,80.24055485,"Cafe, Biryani, American, Burger, Italian, Juices",850,"Credit Card, No Alcohol Available, Dinner, Delivery, Debit Card, Lunch, Cash, Takeaway Available, Free Parking, Live Sports Screening, Outdoor Seating, Table booking recommended, Air Conditioned, Smoking Area, Karaoke, Valet Parking Available, Indoor Seating, Free Wifi, Digital Payments Accepted, Wifi",4.2
Delhi Highway,Casual Dining,Chennai,Nungambakkam,13.0608943,80.25004618,"North Indian, Beverages",1200,"Dinner, Delivery, Debit Card, Lunch, Cash, Takeaway Available, Credit Card, Indoor Seating, Air Conditioned, Pure Veg, Table booking recommended",4.1
Sea Mount,Quick Bites,Chennai,Aminijikarai,13.06790114,80.22661239,"South Indian, North Indian, Chinese, Seafood",500,"Dinner, Cash, Takeaway Available, Debit Card, Lunch, Delivery, Credit Card, Indoor Seating, Air Conditioned",3.9
Dindigul Thalappakatti,Casual Dining,Chennai,Ramapuram,13.02179949,80.18246189,"South Indian, Biryani, Chinese, North Indian",800,"Lunch, Takeaway Available, Debit Card, No Alcohol Available, Dinner, Cash, Delivery, Credit Card, Indoor Seating, Table reservation required, Catering Available, Wifi, Air Conditioned",4
Burger King,Quick Bites,Chennai,"Phoenix Market City, Velachery",12.99157559,80.21693531,"Burger, Fast Food, Beverages",500,"Dinner, Mall Parking, Delivery, Credit Card, Lunch, Cash, Takeaway Available, Debit Card, Outdoor Seating, Rooftop, Air Conditioned, Indoor Seating, Axis Bank - Dining Delights",3.8
Tonico Cafe,Cafe,Kochi,Kakkanad,10.00688056,76.34539722,"Fast Food, Continental, Burger, Cafe, Desserts",400,"Lunch, Delivery, Debit Card, No Alcohol Available, Dinner, Cash, Takeaway Available, Free Parking, Indoor Seating, Air Conditioned, Smoking Area, Outdoor Seating, Wifi",4.3
The Farm,Casual Dining,Chennai,Semmancheri,12.86675567,80.22750758,"Steak, Pizza, North Indian, Juices",1500,"Dinner, Cash, Takeaway Available, Credit Card, Debit Card, Lunch, Breakfast, Outdoor Seating, Table booking recommended, Pet Friendly, Halal",4.3
BurgerMan,Casual Dining,Chennai,Besant Nagar,13.00074834,80.26917569,"Continental, Fast Food, American, Beverages",500,"Takeaway Available, Debit Card, Dinner, Cash, Delivery, Credit Card, Lunch, Air Conditioned, Wifi, Free Parking, Indoor Seating, Outdoor Seating, Digital Payments Accepted",4.4
Nungambakkam Bismi Biriyani,Quick Bites,Chennai,Nungambakkam,13.06158507,80.2431576,"Biryani, North Indian",400,"Dinner, Delivery, Debit Card, Lunch, Cash, Takeaway Available, Credit Card, Indoor Seating, Catering Available, Halal, Air Conditioned",3.9
Shri Rajasthani Dhaba,Casual Dining,Chennai,Anna Nagar West,13.08487623,80.20412005,Rajasthani,500,"Debit Card, Delivery, No Alcohol Available, Cash, Dinner, Credit Card, Takeaway Available, Lunch, Serves Jain Food, Indoor Seating, Table reservation required, Pure Veg, Air Conditioned, Digital Payments Accepted",4.4
Hotel Junior Kuppanna,Casual Dining,Chennai,T. Nagar,13.05145661,80.23472473,"South Indian, Chinese, Biryani",700,"Delivery, No Alcohol Available, Cash, Lunch, Debit Card, Dinner, Takeaway Available, Credit Card, Air Conditioned, Table booking not available, Indoor Seating",4.1
Nair Mess,Mess,Chennai,Triplicane,13.064321,80.27751133,"South Indian, Biryani",200,"Dinner, Takeaway Available, Debit Card, Lunch, Cash, Credit Card, Indoor Seating",4.3
Sera - The Tapas Bar & Restaurant,Pub,Chennai,Gopalapuram,13.04582962,80.25805291,"Italian, Seafood, Finger Food",1600,"Lunch, Delivery, Credit Card, Debit Card, Dinner, Cash, Takeaway Available, Free Parking, Fullbar, Table reservation required, Air Conditioned, Nightlife, Indoor Seating, Restricted Entry, Brunch",4.3
The Fat Boy,Casual Dining,Chennai,Alwarpet,13.03266083,80.25104966,"Pizza, Fast Food",800,"Lunch, Cash, Takeaway Available, Credit Card, Dinner, Delivery, Debit Card, Free Parking, Table booking recommended, Air Conditioned, Live Sports Screening, Indoor Seating, Digital Payments Accepted, Kid Friendly, Vegan Options",4.2
Amdavadi,Casual Dining,Chennai,T. Nagar,13.04179123,80.24497882,Gujarati,600,"Delivery, Lunch, Cash, Credit Card, Debit Card, No Alcohol Available, Takeaway Available, Dinner, Indoor Seating, Valet Parking Available, Brunch, Table booking recommended, Free Wifi, Serves Jain Food, Pure Veg, Wifi, Air Conditioned, Digital Payments Accepted",3.8
Real Food Mall,Quick Bites,Chennai,Potheri,12.8194752,80.03943611,"Biryani, South Indian",300,"Lunch, Delivery, Credit Card, Debit Card, Dinner, Cash, Takeaway Available, Breakfast, Free Parking, Indoor Seating",3.4
KFC,Quick Bites,Chennai,Perambur,13.11693622,80.22814829,"Burger, Fast Food",500,"Lunch, Cash, Delivery, Debit Card, Dinner, Takeaway Available, Credit Card, Free Parking, Card Upon Delivery, Halal, Indoor Seating, Air Conditioned, Wifi",3.9
J.Hind - Grand by GRT Hotels,Fine Dining,Chennai,Grand by GRT Hotels,13.04021524,80.24496004,"North Indian, Mughlai, South Indian",2500,"Debit Card, Lunch, Dinner, Serves Alcohol, Credit Card, Cash, Takeaway Available, Luxury Dining, Air Conditioned, Buffet, Table reservation required, 4/5 Star, Indoor Seating",4.8
Taka Pizza,Quick Bites,Puducherry,MG Road,11.9396853,79.83200211,"Italian, Pizza",400,"Delivery, No Alcohol Available, Dinner, Takeaway Available, Lunch, Credit Card, Cash, Debit Card, Kid Friendly, Digital Payments Accepted, Free Parking, Indoor Seating, Private Dining Area Available, Air Conditioned",4.3
Cafe 17,Cafe,Kochi,Kaloor,9.988483333,76.29521111,"Continental, Cafe, Healthy Food",700,"Lunch, Delivery, Credit Card, No Alcohol Available, Dinner, Cash, Takeaway Available, Debit Card, Indoor Seating, Air Conditioned",4.6
Hotelkaar Biriyani,Quick Bites,Chennai,T. Nagar,13.03645668,80.22890635,South Indian,350,"Dinner, Cash, Takeaway Available, Debit Card, Lunch, Delivery, Credit Card, Indoor Seating, Digital Payments Accepted",4
Pedreno's,Casual Dining,Chennai,Mylapore,13.04272277,80.26345689,"Continental, Italian, Mexican",1200,"Debit Card, Dinner, Takeaway Available, Lunch, Cash, Delivery, Credit Card, No Alcohol Available, Desserts and Bakes, Digital Payments Accepted, Live Sports Screening, Valet Parking Available, Air Conditioned, Table reservation required, Indoor Seating, Table booking not available",4.3
Tanto,Casual Dining,Puducherry,Auroville,11.99091661,79.82865572,"Pizza, Italian",1000,"Debit Card, Lunch, Credit Card, Dinner, Cash, Delivery, No Alcohol Available, Outdoor Seating, Digital Payments Accepted, Table Reservation Not Required",4.3
Haagen Dazs,Dessert Parlour,Chennai,Nungambakkam,13.05994258,80.24831079,Ice Cream,800,"Cash, Delivery, Credit Card, Takeaway Available, Debit Card, Indoor Seating, Desserts and Bakes, Air Conditioned, Wifi",4.4
Bloomsbury's Global Kitchen & Bakehouse,Cafe,Kochi,"LuLu Mall, Edappally",10.02701389,76.30805278,"Cafe, Salad, Italian, American, Bakery, Beverages",650,"Cash, Mall Parking, No Alcohol Available, Delivery, Desserts and Bakes, Air Conditioned, Indoor Seating",4.4
Gossip Fusion Bistro,Casual Dining,Chennai,Kanathur,12.8672087,80.24341911,"Italian, Continental, Burger, Sandwich, Wraps, Kerala, North Indian, South Indian",1500,"Dinner, Cash, Delivery, Credit Card, Lunch, Takeaway Available, Breakfast, Debit Card, Indoor Seating, Digital Payments Accepted, Buffet, Table booking recommended, Air Conditioned, Wifi",4.7
The Indian Kaffe Express,Cafe,Puducherry,White Town,11.93036995,79.83476747,"Cafe, North Indian",500,"Delivery, Credit Card, Dinner, No Alcohol Available, Lunch, Breakfast, Takeaway Available, Cash, Debit Card, Air Conditioned, Table booking recommended, Indoor Seating",4.2
Barbeque Nation,Casual Dining,Coimbatore,Town Hall,10.99419714,76.96337186,"North Indian, European, Mediterranean",1400,"Cash, Debit Card, Takeaway Available, Lunch, Serves Alcohol, Credit Card, Dinner, Indoor Seating, Beer, Valet Parking Available, Air Conditioned, Buffet, Table booking recommended",4.7
Bazaar - All Day Diner - Grand by GRT Hotels,Fine Dining,Chennai,Grand by GRT Hotels,13.04005193,80.24516288,"North Indian, South Indian, Continental, Asian",2500,"Takeaway Available, Serves Alcohol, Debit Card, Breakfast, Credit Card, Lunch, Cash, Delivery, Dinner, Buffet, Air Conditioned, Brunch, Indoor Seating, 4/5 Star, Table reservation required, Luxury Dining",4.6
Yaa Mohaideen Biryani,Casual Dining,Chennai,Pallavaram,12.96447483,80.1474537,Biryani,500,"Cash, Lunch, No Alcohol Available, Dinner, Takeaway Available, Indoor Seating, Table reservation required",4.4
Eden,Casual Dining,Chennai,Besant Nagar,12.99762458,80.26773233,"North Indian, Continental, Italian",750,"Dinner, Delivery, Credit Card, Lunch, Cash, Takeaway Available, Debit Card, Indoor Seating, Air Conditioned, Pure Veg, Table reservation required, Serves Jain Food",4
BOATS - Based On A True Story,Bar,Chennai,Besant Nagar,13.00274533,80.27203593,"Continental, Chinese, North Indian",1700,"Lunch, Debit Card, Dinner, Cash, Credit Card, DJ, Live Sports Screening, Live Music, Table booking for Groups, Air Conditioned, LGBTQIA Friendly, Smoking Area, Free Parking, Fullbar, Indoor Seating, Restricted Entry, Resto Bar",4.2
Le Dupleix,Casual Dining,Puducherry,White Town,11.93104176,79.83375896,"North Indian, French, Continental",1500,"Credit Card, Serves Alcohol, Dinner, Debit Card, Lunch, Takeaway Available, Cash, Air Conditioned, Outdoor Seating, Fullbar, Table booking recommended, Smoking Area",4.3
Buhari,Casual Dining,Chennai,Velachery,12.97942619,80.22644375,"Biryani, Arabian, North Indian, Chinese",850,"Cash, Takeaway Available, No Alcohol Available, Dinner, Debit Card, Credit Card, Delivery, Lunch, Indoor Seating, Wifi, Air Conditioned, Buffet, Table booking not available",2.6
US 101 - Be-A-Sport,Casual Dining,Chennai,"GLM Meridian Hotel, T. Nagar",13.0325857,80.23935322,"Continental, South Indian, Italian, North Indian, Asian, Kebab",1350,"Debit Card, Lunch, Cash, Takeaway Available, Credit Card, Dinner, Smoking Area, Vegan Options, DJ, Gaming Area, Nightlife, Sports TV, Fullbar, Table booking recommended, Air Conditioned, Dance Floor, Live Sports Screening, Pool Table, Valet Parking Available, Indoor Seating, Table booking for Groups",4.1
Kailash Parbat,Casual Dining,Chennai,Chetpet,13.06899522,80.23799602,North Indian,600,"Takeaway Available, Breakfast, Debit Card, Lunch, Cash, Delivery, Credit Card, No Alcohol Available, Dinner, Private Dining Area Available, Serves Jain Food, Free Parking, Indoor Seating, Table booking recommended, Axis Bank - Dining Delights, Pure Veg, Buffet, Valet Parking Available, Air Conditioned",4
Waffles Thru The Day,Cafe,Chennai,Adyar,12.99631359,80.25250811,"Cafe, Desserts, American",800,"Debit Card, Lunch, Takeaway Available, Breakfast, Dinner, Cash, Delivery, Credit Card, Free Parking, Air Conditioned, Wifi, Desserts and Bakes, Indoor Seating, Brunch",4.2
Cibo,Casual Dining,Chennai,Ashok Nagar,13.03993859,80.21462895,"Continental, North Indian, Steak, Thai, Italian, Asian",800,"Lunch, Cash, Takeaway Available, Debit Card, Dinner, Delivery, Credit Card, Free Parking, Valet Parking Available, Free Wifi, Air Conditioned, Wifi, Sports TV, Indoor Seating, Table booking recommended, Kid Friendly, Smoking Area",3.7
Bombay Lassi,,Chennai,Triplicane,13.06594157,80.27115952,Street Food,100,"Lunch, Takeaway Available, Cash, Pure Veg",4.8
Cafe des Arts,Cafe,Puducherry,White Town,11.93017837,79.83334254,Cafe,800,"Credit Card, No Alcohol Available, Breakfast, Cash, Outdoor Seating, Table booking recommended",4
Hotel Crescent,Casual Dining,Chennai,Nungambakkam,13.06432132,80.24340905,"South Indian, Chinese, North Indian",500,"Credit Card, Dinner, Delivery, Debit Card, Takeaway Available, No Alcohol Available, Cash, Lunch, Indoor Seating, Air Conditioned, Table Reservation Not Required",4.1
Twilight Take Out,Quick Bites,Chennai,Nungambakkam,13.05439744,80.23916781,"North Indian, Chinese, Rolls, Continental, Biryani",350,"Dinner, Delivery, No Seating Available, Cash, Takeaway Available, Free Parking",3.8
Hotel Al Buhari,Quick Bites,Chennai,Vadapalani,13.04828908,80.20497903,Street Food,200,"Delivery, Debit Card, Lunch, Takeaway Available, Credit Card, Dinner, Cash, Halal, Indoor Seating, Digital Payments Accepted",3.8
Joker's Kitchen,Casual Dining,Chennai,Alwarpet,13.03583673,80.25512494,"Continental, Italian",800,"Dinner, Cash, Delivery, Debit Card, Lunch, Takeaway Available, Credit Card, Board Games, Indoor Seating, Digital Payments Accepted, Table Reservation Not Required, Smoking Area, Pure Veg, Live Sports Screening, Free Parking, Table booking for Groups, Air Conditioned, Kid Friendly, Private Dining Area Available, Wifi, Group Meal",4.4
Burger Ka Baap,Quick Bites,Coimbatore,Peelamedu,11.02189941,76.99954614,"Fast Food, Burger",500,"Credit Card, Takeaway Available, Lunch, Delivery, Cash, Debit Card, No Alcohol Available, Dinner, Indoor Seating",4.8
Domino's Pizza,Quick Bites,Chennai,Thuraipakkam,12.92742093,80.23148462,"Pizza, Fast Food",400,"Cash, Delivery, Takeaway Available, No Alcohol Available, Lunch, Dinner, Credit Card, Debit Card, Free Parking, Air Conditioned, Indoor Seating, Catering Available, Halal",3.8
Dindigul Thalappakatti,Casual Dining,Chennai,Ashok Nagar,13.03106323,80.21630164,"South Indian, Biryani, Chinese, North Indian",800,"Takeaway Available, Lunch, Cash, Debit Card, Delivery, No Alcohol Available, Dinner, Credit Card, Air Conditioned, Table reservation required, Indoor Seating, Sneakpeek",4
KFC,Quick Bites,Chennai,Chromepet,12.94323748,80.13412077,"Burger, Fast Food",500,"Takeaway Available, Credit Card, Lunch, Dinner, Cash, Delivery, No Alcohol Available, Debit Card, Card Upon Delivery, Wifi, Digital Payments Accepted, Air Conditioned, Indoor Seating",4.2
Starbucks Coffee,Cafe,Chennai,"Phoenix Market City, Velachery",12.99257984,80.21767259,"Cafe, Sandwich",700,"Mall Parking, Dinner, Breakfast, Cash, Debit Card, Takeaway Available, Lunch, Credit Card, Air Conditioned, Wheelchair Accessible, Wifi, Indoor Seating",4.2
Ifthar,Casual Dining,Kochi,Edappally,10.02816586,76.30980402,"Biryani, South Indian, Kerala, Arabian, Continental",350,"Cash, Debit Card, Lunch, No Alcohol Available, Takeaway Available, Credit Card, Breakfast, Dinner, Delivery, Indoor Seating, Air Conditioned",4.1
Night Eat,,Chennai,Choolaimedu,13.06079371,80.2212359,"Biryani, Chinese, North Indian",500,"No Seating Available, Dinner, Cash, Takeaway Available, Debit Card, Lunch, Delivery, Credit Card, Digital Payments Accepted",4
Rayar's Mess,Mess,Chennai,Mylapore,13.0352759,80.27290665,South Indian,100,"Cash, Takeaway Available, Dinner, Delivery, Breakfast, Indoor Seating",4.5
Mid Street,Quick Bites,Chennai,Mogappair,13.08688528,80.17959259,"Fast Food, Ice Cream",350,"Lunch, Cash, Takeaway Available, Credit Card, Dinner, Delivery, Debit Card, Indoor Seating, Table booking not available, Digital Payments Accepted, Desserts and Bakes, Air Conditioned, Pure Veg",4
Main Street - The Residency Towers,Fine Dining,Chennai,"The Residency Towers, T. Nagar",13.04055919,80.2438486,"European, Chinese, Japanese, North Indian, Thai",2600,"Credit Card, Dinner, Debit Card, Lunch, Takeaway Available, Serves Alcohol, Breakfast, Cash, Brunch, Table booking recommended, Air Conditioned, Buffet, Live Sports Screening, Indoor Seating, Wheelchair Accessible, Fullbar, Valet Parking Available, Wifi, 4/5 Star, Variable Menu",3.9
Kakada Ramprasad,Sweet Shop,Chennai,Sowcarpet,13.09024532,80.27898856,"Mithai, Street Food",450,"Dinner, Cash, Takeaway Available, Lunch, Delivery, Credit Card, Debit Card, Indoor Seating, Serves Jain Food, All Day Breakfast, Desserts and Bakes, Air Conditioned, Pure Veg",4.4
KFC,Quick Bites,Chennai,Nungambakkam,13.05303906,80.24689861,"Burger, Fast Food",500,"No Alcohol Available, Debit Card, Lunch, Delivery, Dinner, Cash, Takeaway Available, Credit Card, Air Conditioned, Card Upon Delivery, Free Parking, Digital Payments Accepted, Wifi, Indoor Seating",3.8
Dindigul Thalappakatti,Casual Dining,Chennai,Anna Nagar West,13.08216208,80.20970944,"South Indian, Biryani, Chinese, North Indian",800,"No Alcohol Available, Dinner, Cash, Takeaway Available, Debit Card, Lunch, Delivery, Credit Card, Free Parking, Air Conditioned, Indoor Seating, Digital Payments Accepted, Table Reservation Not Required",4.1
Pupil,Quick Bites,Chennai,"TNHB Complex, Besant Nagar",13.00097244,80.27092718,"Continental, Chinese, North Indian, Beverages",650,"Delivery, Credit Card, Dinner, Cash, Takeaway Available, Debit Card, Lunch, Indoor Seating",4.1
Benjarong,Casual Dining,Chennai,Alwarpet,13.03169691,80.25201358,Thai,2000,"Takeaway Available, No Alcohol Available, Cash, Delivery, Debit Card, Credit Card, Dinner, Lunch, Wheelchair Accessible, Catering Available, Romantic Dining, Air Conditioned, Indoor Seating, Table booking recommended",4.4
Bike & Barrel - The Residency Towers,Pub,Chennai,"The Residency Towers, T. Nagar",13.04025281,80.2438087,Finger Food,2500,"Lunch, Takeaway Available, Dinner, Cash, Debit Card, Credit Card, Smoking Area, Live Sports Screening, Live Music, Wheelchair Accessible, Fullbar, Table reservation required, Air Conditioned, Wifi, Valet Parking Available, Restricted Entry, Nightlife, Indoor Seating",4
SpiceKlub,Fine Dining,Chennai,Nungambakkam,13.0567696,80.248462,"North Indian, Desserts, Beverages",2000,"Lunch, Cash, Takeaway Available, Credit Card, No Alcohol Available, Dinner, Delivery, Debit Card, Indoor Seating, Table reservation required, Digital Payments Accepted, Pure Veg",4.7
The Vault - Bar Stock Exchange,Casual Dining,Chennai,T. Nagar,13.03478561,80.2376014,"Continental, Italian, Mexican",1500,"Lunch, Debit Card, Serves Alcohol, Takeaway Available, Dinner, Cash, Credit Card, Delivery, Fullbar, Table reservation required, Air Conditioned, Smoking Area, Free Parking, Live Entertainment, Indoor Seating, Restricted Entry",3.9
Double Roti,Cafe,Chennai,Anna Nagar East,13.08200043,80.21277219,"Cafe, American, Fast Food, Burger, Momos",1000,"Cash, Debit Card, Delivery, No Alcohol Available, Dinner, Credit Card, Takeaway Available, Lunch, Air Conditioned, Free Wifi, Indoor Seating, Wifi, Table booking not available",4.2
Asia Kitchen by Mainland China,Casual Dining,Chennai,"The Spring Hotel, Nungambakkam",13.05283884,80.24834197,"Chinese, Asian, Momos",1500,"No Alcohol Available, Dinner, Delivery, Credit Card, Debit Card, Lunch, Cash, Takeaway Available, Valet Parking Available, Air Conditioned, Indoor Seating, Digital Payments Accepted, Buffet",4.6
Diff 42 - Resto Lounge,Lounge,Chennai,Velachery,12.97558895,80.22133179,"Continental, North Indian, Chinese, Finger Food",1700,"Lunch, Credit Card, Debit Card, Cash, Dinner, Smoking Area, Live Sports Screening, Wine, Restricted Entry, Nightlife, Beer, Table reservation required, DJ, Valet Parking Available, Indoor Seating, Free Parking, Fullbar, Serves Cocktails, Air Conditioned",4
Cafe De Paris,Cafe,Chennai,Foodies Kitchen,13.03171325,80.24561014,"Cafe, Beverages, Desserts, Italian",900,"Debit Card, Dinner, Delivery, Credit Card, Lunch, Cash, Takeaway Available, Valet Parking Available, Indoor Seating, Table booking recommended, Kid Friendly, Wheelchair Accessible, All Day Breakfast, Desserts and Bakes, Outdoor Seating, Free Wifi, Air Conditioned, Wifi",4.4
Andhikkadai,Quick Bites,Chennai,Velachery,12.98251718,80.22467349,South Indian,300,"Lunch, Cash, Breakfast, Dinner, Delivery, Credit Card, Debit Card, Free Parking, Digital Payments Accepted, Pure Veg, Indoor Seating, Air Conditioned",4.4
Nivis Kitchen,Casual Dining,Chennai,Egatoor,12.83333227,80.22854425,"North Indian, South Indian, Chinese, Chettinad, Arabian, Biryani, Momos",550,"Lunch, Takeaway Available, Debit Card, No Alcohol Available, Dinner, Cash, Delivery, Credit Card, Indoor Seating, Air Conditioned, Wifi",3.6
Thambi Vilas,Casual Dining,Chennai,T. Nagar,13.05043235,80.23589853,"South Indian, Biryani",600,"Lunch, Takeaway Available, Breakfast, Dinner, Cash, Credit Card, Debit Card, Outdoor Seating, Air Conditioned, Indoor Seating",3.9
KFC,Quick Bites,Chennai,Navallur,12.85034068,80.22624593,"Burger, Fast Food",500,"Lunch, Takeaway Available, Debit Card, No Alcohol Available, Dinner, Cash, Delivery, Credit Card, Indoor Seating, Air Conditioned, Wifi, Card Upon Delivery, Digital Payments Accepted",4
Escape In,Casual Dining,Puducherry,White Town,11.9269026,79.83450897,"North Indian, Continental, Chinese, Arabian, BBQ, Beverages, Desserts, Ice Cream",600,"Credit Card, Dinner, No Alcohol Available, Cash, Debit Card, Lunch, Takeaway Available, Seaview, Indoor Seating, Digital Payments Accepted, Air Conditioned, Private Dining Area Available, Free Wifi, Free Parking, City View, Desserts and Bakes, Kid Friendly, Wifi",4.2
Brownie Heaven,Dessert Parlour,Chennai,Royapettah,13.05427594,80.26117768,"Desserts, Beverages",400,"Delivery, Credit Card, Cash, Takeaway Available, Debit Card, Indoor Seating, Air Conditioned, Desserts and Bakes, Digital Payments Accepted",4.6
Dragon's Den,Casual Dining,Chennai,Adyar,12.99678238,80.25667291,"Chinese, Momos",500,"No Alcohol Available, Dinner, Delivery, Credit Card, Lunch, Cash, Takeaway Available, Debit Card, Valet Parking Available, Digital Payments Accepted, Kid Friendly, Indoor Seating, Table booking recommended, Air Conditioned",4.2
Pakwan Chennai,Casual Dining,Chennai,T. Nagar,13.04489254,80.23883656,"North Indian, Chinese, Italian",1200,"Lunch, Takeaway Available, No Alcohol Available, Dinner, Cash, Delivery, Credit Card, Debit Card, Free Parking, Indoor Seating, Table booking recommended, Air Conditioned, Wheelchair Accessible, Serves Jain Food, Buffet, Valet Parking Available, Digital Payments Accepted, Pure Veg",4.2
Faruuzi Multicuisine,Casual Dining,Chennai,Chromepet,12.9575216,80.14371369,"North Indian, Chinese, Arabian, Beverages",1000,"Cash, Delivery, Dinner, Takeaway Available, Debit Card, No Alcohol Available, Credit Card, Lunch, Indoor Seating, Air Conditioned, Digital Payments Accepted, Valet Parking Available, Table booking recommended",4.1
The Good Spot,Casual Dining,Chennai,Adyar,13.00569981,80.25114588,"Asian, Cafe, Continental",600,"Takeaway Available, Debit Card, Lunch, Cash, Delivery, Credit Card, Dinner, Table booking recommended, Air Conditioned, Smoking Area, Free Parking, Live Music, Digital Payments Accepted, Outdoor Seating, Indoor Seating",4.2
Hotel Saravana Bhavan,Casual Dining,Chennai,Perungudi,12.96733632,80.24770595,"South Indian, Chinese",400,"Cash, Credit Card, Breakfast, Dinner, Lunch, Delivery, No Alcohol Available, Takeaway Available, Catering Available, Buffet, Digital Payments Accepted, Indoor Seating, Pure Veg, Air Conditioned",2.9
Ghuma Ghumalu,Quick Bites,Chennai,Navallur,12.84321168,80.22751596,"Chinese, South Indian, Biryani",500,"Dinner, Delivery, Credit Card, Debit Card, Lunch, Cash, Takeaway Available, Breakfast, Indoor Seating, Air Conditioned, Table reservation required",4.1
KFC,Quick Bites,Chennai,Velachery,12.97254525,80.21921653,"Burger, Fast Food",500,"Lunch, Cash, Delivery, Debit Card, Dinner, Takeaway Available, Credit Card, Free Parking, Card Upon Delivery, Halal, Indoor Seating, Digital Payments Accepted, Air Conditioned, Wifi",3.1
KFC,Quick Bites,Chennai,"Chennai Citi Centre, Mylapore",13.04287106,80.27390711,"Burger, Fast Food",500,"Lunch, Cash, Takeaway Available, Debit Card, Dinner, Mall Parking, Delivery, Credit Card, Indoor Seating, Air Conditioned, Rooftop, Card Upon Delivery",3.5
Soy Soi,Casual Dining,Chennai,Kotturpuram,13.01910065,80.24128642,"Burmese, Thai, Vietnamese, Indonesian, Singaporean, Japanese, Malaysian",1400,"Dinner, Cash, Credit Card, Lunch, Takeaway Available, Debit Card, Indoor Seating, Table booking recommended",4.5
Shyam's Bombay Halwa House,Casual Dining,Chennai,T. Nagar,13.04264928,80.23343291,North Indian,600,"Credit Card, No Alcohol Available, Debit Card, Lunch, Delivery, Dinner, Takeaway Available, Cash, Air Conditioned, Indoor Seating, Table reservation required, Digital Payments Accepted, Pure Veg, Serves Jain Food, Catering Available",4.3
Aasife & Brothers Biriyani Centre,Casual Dining,Chennai,St. Thomas Mount,13.01014125,80.19602045,"North Indian, Chinese, Seafood",750,"Credit Card, Dinner, Delivery, No Alcohol Available, Cash, Lunch, Air Conditioned, Indoor Seating, Table booking recommended, Wifi, Catering Available",2.6
Dialogue In The Dark,Casual Dining,Chennai,"Express Avenue Mall,  Royapettah",13.05847384,80.26400875,North Indian,1200,"Lunch, Cash, Credit Card, No Alcohol Available, Dinner, Mall Parking, Takeaway Available, Debit Card, Indoor Seating, Table Reservation Not Required",4.7
Jonah's Bistro,Casual Dining,Chennai,"Phoenix Market City, Velachery",12.99164909,80.21651823,"Continental, European, Italian",800,"Dinner, Mall Parking, Delivery, Credit Card, Lunch, Cash, Takeaway Available, Debit Card, Indoor Seating, Digital Payments Accepted, Table booking recommended, Air Conditioned",4.1
Savoury Sea Shell,Casual Dining,Chennai,Egmore,13.05669089,80.25535963,"Chinese, BBQ, South Indian",750,"Credit Card, Cash, Delivery, Dinner, Takeaway Available, Lunch, Debit Card, No Alcohol Available, Catering Available, Table booking recommended, Indoor Seating, Halal, Air Conditioned",4.1
Sangeetha Veg Restaurant,Casual Dining,Chennai,Medavakkam,12.91712753,80.19104362,"South Indian, North Indian, Chinese",500,"Cash, Credit Card, Debit Card, No Alcohol Available, Dinner, Delivery, Breakfast, Lunch, Air Conditioned, Pure Veg, Valet Parking Available, Catering Available, Serves Jain Food, Indoor Seating, Table reservation required",4
Lucky Da Punjabi Dhaba,Casual Dining,Chennai,Perungudi,12.97528511,80.24402797,North Indian,900,"Credit Card, Dinner, Takeaway Available, Delivery, Cash, Lunch, No Alcohol Available, Debit Card, Indoor Seating, Digital Payments Accepted, Halal, Air Conditioned",4
Valarmathi Kongunaatu Samayal,Casual Dining,Coimbatore,Race Course,11.00177806,76.9760168,"South Indian, Biryani",450,"Dinner, Cash, Lunch, No Alcohol Available, Indoor Seating, Table booking recommended",4.7
ID,Casual Dining,Chennai,"Sathyam Cinemas Complex, Royapettah",13.05528027,80.25807034,South Indian,500,"Dinner, Takeaway Available, Breakfast, Lunch, Cash, Credit Card, Debit Card, Indoor Seating, Table Reservation Not Required, Serves Jain Food, Air Conditioned, Pure Veg",4.2
Mullapanthal Toddy Shop,Quick Bites,Kochi,Tripunithura,9.908412,76.361801,"Kerala, Seafood, Drinks Only",500,"Dinner, Cash, Lunch, Serves Alcohol, Indoor Seating",4.5
Welcome Hotel,Quick Bites,Chennai,Purasavakkam,13.085869,80.25462069,"South Indian, Sandwich, Juices",250,"Lunch, Cash, Dinner, Takeaway Available, Breakfast, Free Parking, Pure Veg, Indoor Seating",4.5
KFC,Quick Bites,Chennai,Anna Nagar West,13.08521815,80.20418745,"Burger, Fast Food",500,"Takeaway Available, No Alcohol Available, Lunch, Dinner, Delivery, Debit Card, Credit Card, Cash, Indoor Seating, Wifi, Free Parking, Air Conditioned, Card Upon Delivery, Digital Payments Accepted",3.9
The Cycle Gap,Bar,Chennai,Anna Nagar West,13.08796949,80.21781407,"South Indian, Chinese, Continental, Finger Food",1700,"Dinner, Credit Card, Debit Card, Serves Alcohol, Lunch, Cash, Takeaway Available, Serves Cocktails, Air Conditioned, Smoking Area, DJ, Fullbar, Indoor Seating, Table booking recommended, Brunch, Nightlife",4.3
AlMaza,Casual Dining,Chennai,Anna Nagar East,13.08342853,80.22045236,"Arabian, Mughlai, North Indian, Biryani",1000,"Lunch, Cash, Takeaway Available, Debit Card, No Alcohol Available, Dinner, Delivery, Credit Card, Indoor Seating, Table booking recommended, Air Conditioned",4.3
Ashvita Bistro,Cafe,Chennai,Alwarpet,13.03263013,80.25503106,"Cafe, Italian, Thai, Salad, Juices, Momos",1000,"Cash, No Alcohol Available, Dinner, Debit Card, Credit Card, Delivery, Lunch, Outdoor Seating, Air Conditioned, Romantic Dining, Indoor Seating, Brunch, Table reservation required",4.1
Curry and Spices,Casual Dining,Chennai,Kodambakkam,13.05207098,80.22793237,"South Indian, Chettinad, North Indian, Chinese",650,"Cash, Debit Card, Delivery, No Alcohol Available, Dinner, Credit Card, Takeaway Available, Lunch, Valet Parking Available, Air Conditioned, Table booking for Groups, Free Parking, Indoor Seating, Wifi, Free Wifi, Table booking recommended",4
Sigree Global Grill,Casual Dining,Chennai,"The Spring Hotel, Nungambakkam",13.05284538,80.24827793,"North Indian, Mexican, Mediterranean",1200,"Delivery, Dinner, Debit Card, Credit Card, No Alcohol Available, Lunch, Cash, Takeaway Available, Indoor Seating, Valet Parking Available, Buffet, Wheelchair Accessible, Air Conditioned, Table booking recommended",4.5
Urban Spatula,Casual Dining,Chennai,Anna Nagar West,13.08705771,80.20076025,"Continental, Seafood, Biryani, Italian, North Indian, Asian, Kebab",800,"Dinner, Cash, Takeaway Available, Debit Card, Lunch, Delivery, Credit Card, Free Parking, Indoor Seating, Table booking for Groups, Air Conditioned, Live Sports Screening, Table booking recommended, Digital Payments Accepted, Kid Friendly, Group Meal",4.3
The Burger Junction,Cafe,Kochi,Panampilly Nagar,9.955775848,76.29585519,Burger,450,"No Alcohol Available, Dinner, Delivery, Credit Card, Lunch, Cash, Takeaway Available, Live Sports Screening, Air Conditioned, Indoor Seating, Table booking recommended",4.6
BNB Live Grill,Casual Dining,Chennai,Navallur,12.84948,80.22597704,North Indian,1300,"Dinner, Cash, Lunch, Credit Card, Debit Card, Free Parking, Indoor Seating, Digital Payments Accepted, Buffet, Live Sports Screening, Table booking recommended, Air Conditioned",4.1
Andhra Ruchulu,Quick Bites,Chennai,Porur,13.025456,80.175745,"Biryani, Andhra, North Indian, Chinese, South Indian",300,"Cash, Takeaway Available, Debit Card, Dinner, Delivery, Credit Card, Lunch, Indoor Seating, Air Conditioned",3.7
Hamsa,Fine Dining,Chennai,Adyar,13.00955651,80.25272772,"North Indian, South Indian, Desserts",1800,"Lunch, Cash, Takeaway Available, Debit Card, No Alcohol Available, Dinner, Delivery, Credit Card, Free Parking, Indoor Seating, Table reservation required, Wheelchair Accessible, Pure Veg, Vegan Options, Valet Parking Available, Air Conditioned, Private Dining Area Available, Gluten Free Options, Serves Jain Food",4.5
Hot Pot China,Casual Dining,Chennai,Perungudi,12.96378609,80.24640642,"Chinese, Thai, Indonesian, Malaysian, Vietnamese, Singaporean, Asian, Momos",1000,"Cash, Delivery, No Alcohol Available, Dinner, Credit Card, Takeaway Available, Lunch, Debit Card, Indoor Seating, Table booking recommended, Air Conditioned",3.9
Shri Balaajee Bhavan,Casual Dining,Chennai,Anna Nagar East,13.08573903,80.22334311,"South Indian, North Indian",500,"Debit Card, Delivery, Lunch, No Alcohol Available, Credit Card, Breakfast, Cash, Dinner, Takeaway Available, Air Conditioned, Indoor Seating, Pure Veg, Table reservation required, Catering Available",4.2
Alakapuri,Casual Dining,Kochi,Kakkanad,10.01671667,76.34495556,"Kerala, South Indian, Chinese",300,"Breakfast, Lunch, Cash, No Alcohol Available, Dinner, Takeaway Available, Indoor Seating, Air Conditioned",4.2
Sheba Kuzhimandhi,Quick Bites,Kochi,Kakkanad,10.02835999,76.33661438,"Arabian, Continental",400,"Dinner, Cash, No Alcohol Available, Delivery, Lunch, Takeaway Available, Debit Card, Free Parking, Indoor Seating",4.3
Coromandel Cafe,Cafe,Puducherry,White Town,11.93110212,79.83424008,"Cafe, Italian, French, British",1000,"Takeaway Available, Dinner, Debit Card, Lunch, Serves Alcohol, Credit Card, Cash, Breakfast, Air Conditioned, Indoor Seating, Table booking recommended, Outdoor Seating, Fullbar, Smoking Area, Serves Cocktails, Wifi",4.5
Watson's,Casual Dining,Chennai,T. Nagar,13.0444663,80.23858275,"Asian, Continental, Finger Food, North Indian",1000,"Dinner, Debit Card, Cash, Takeaway Available, Lunch, Credit Card, Serves Alcohol, Nightlife, Air Conditioned, Indoor Seating, Fullbar, Table booking recommended",4.2
Domino's Pizza,Quick Bites,Chennai,Kanchipuram District,12.83281544,80.04760746,"Pizza, Fast Food",400,"Cash, Delivery, Lunch, Credit Card, No Alcohol Available, Dinner, Debit Card, Indoor Seating, Air Conditioned",2.9
Thaqwa Biryani,Quick Bites,Chennai,Ambattur,13.12910629,80.15614774,"North Indian, Chinese",450,"Cash, Dinner, Delivery, Credit Card, Lunch, Takeaway Available, No Alcohol Available, Debit Card, Air Conditioned, Halal, Indoor Seating, Free Parking, Digital Payments Accepted",3.9
Bismi Hotel,Quick Bites,Madurai,KK Nagar,9.932256539,78.14376175,South Indian,250,"No Alcohol Available, Lunch, Takeaway Available, Cash, Dinner, Indoor Seating, Halal",4.3
Soul Garden Bistro,Casual Dining,Chennai,Alwarpet,13.03390533,80.25448825,"Continental, Mexican, Italian",800,"No Alcohol Available, Dinner, Cash, Takeaway Available, Credit Card, Lunch, Debit Card, Live Sports Screening, Live Music, Table booking recommended, Air Conditioned, Outdoor Seating, Indoor Seating, Free Wifi, Digital Payments Accepted, Axis Bank - Dining Delights, Wheelchair Accessible, Pure Veg",4.2
Bistro 1427,Cafe,Chennai,Mylapore,13.04271101,80.26821177,"Cafe, North Indian, Chinese, Italian",700,"Lunch, Delivery, Breakfast, Dinner, Cash, Takeaway Available, Credit Card, Debit Card, Live Sports Screening, Table booking recommended, Air Conditioned, Pure Veg, Indoor Seating, Digital Payments Accepted",4.4
Pind,Casual Dining,Chennai,Thuraipakkam,12.94973431,80.23772512,"North Indian, Chinese",900,"Dinner, Delivery, Breakfast, Debit Card, Lunch, Cash, Takeaway Available, Credit Card, Indoor Seating, Air Conditioned, Pure Veg, Table reservation required, Buffet",4.2
Shahi Grill,Casual Dining,Coimbatore,Peelamedu,11.02170097,76.99841425,"Chettinad, North Indian, Chinese",350,"Cash, Debit Card, Delivery, No Alcohol Available, Dinner, Credit Card, Takeaway Available, Lunch, Air Conditioned, Indoor Seating",4.2
Oxygen,Quick Bites,Chennai,Potheri,12.82700796,80.04380208,"North Indian, Chinese, Biryani",500,"Lunch, Cash, Takeaway Available, Debit Card, Dinner, Delivery, Credit Card, Indoor Seating, Digital Payments Accepted, Rooftop, Table Reservation Not Required",3.7
Haribhavanam,Casual Dining,Coimbatore,Peelamedu,11.02229234,76.99596103,"South Indian, Chettinad, North Indian",600,"Cash, Debit Card, Takeaway Available, Lunch, Credit Card, Delivery, No Alcohol Available, Dinner, Air Conditioned, Indoor Seating, Digital Payments Accepted",4.3
Sandy's Chocolate Laboratory,Casual Dining,Chennai,Teynampet,13.03126836,80.24692744,"Desserts, Continental, Italian, Cafe",1400,"Debit Card, Takeaway Available, Credit Card, No Alcohol Available, Cash, Breakfast, Dinner, Lunch, Desserts and Bakes, Air Conditioned, Indoor Seating, Table booking recommended, Wifi, Catering Available",4.2
Roast And Grills - Green Park Hotel,Fine Dining,Chennai,"Green Park Hotel, Vadapalani",13.05078738,80.20821042,"Chinese, North Indian, BBQ",2000,"Credit Card, Debit Card, Dinner, Cash, Wifi, Poolside, 4/5 Star, Halal, Beer, Luxury Dining, Table reservation required, Wine, Buffet, Indoor Seating, Wheelchair Accessible, Outdoor Seating, Axis Bank - Dining Delights",4.1
Hotel Harsh Dhaba,Dhaba,Kochi,Kakkanad,10.01679219,76.36909124,"North Indian, South Indian, Fast Food",250,"Lunch, Cash, Takeaway Available, No Alcohol Available, Dinner, Delivery, Breakfast, Indoor Seating",4.2
Arabian Kebab Center,Quick Bites,Chennai,Kodambakkam,13.05224898,80.22762727,"Biryani, North Indian",400,"Cash, Dinner, Lunch, Takeaway Available, No Alcohol Available, No Seating Available, Halal, Free Parking",4.5
Rice N Fish,Casual Dining,Kochi,Kakkanad,10.01425833,76.33442778,"Seafood, North Indian, Chinese",700,"Cash, Lunch, No Alcohol Available, Takeaway Available, Breakfast, Dinner, Delivery, Wifi, Indoor Seating, Air Conditioned",4.1
601 - The Park,Fine Dining,Chennai,"The Park, Nungambakkam",13.05281174,80.24977829,"Biryani, North Indian",2700,"Dinner, Takeaway Available, Lunch, Debit Card, Credit Card, Breakfast, Cash, Delivery, Brunch, Indoor Seating, Smoking Area, Serves Jain Food, 4/5 Star, Air Conditioned, Wheelchair Accessible, Vegan Options, Live Sports Screening, Fullbar, Beer, Free Parking, Kid Friendly, Wifi, Desserts and Bakes, Valet Parking Available, Luxury Dining, Gluten Free Options, Buffet, Table booking recommended, Wine",4.2
Double Roti,Cafe,Chennai,Neelangarai,12.95645088,80.25539853,"Cafe, American, Fast Food, Burger, Momos",1000,"Cash, Takeaway Available, Lunch, Dinner, Credit Card, Delivery, No Alcohol Available, Table booking not available, Outdoor Seating, Wifi, Air Conditioned",4.2
Shiraz Art Cafe @ Tryst,Casual Dining,Chennai,Neelangarai,12.94576069,80.25400411,"Continental, Parsi, Biryani, Iranian",1100,"Cash, Dinner, No Alcohol Available, Lunch, Pet Friendly, Table booking recommended, Outdoor Seating, Brunch, Air Conditioned, Wifi",4.2
Roll Over,Dessert Parlour,Chennai,Anna Nagar East,13.08499347,80.20645726,"Desserts, Fast Food",450,"Credit Card, Delivery, Cash, Debit Card, No Alcohol Available, Takeaway Available, Free Parking, Indoor Seating, Desserts and Bakes, Air Conditioned, Pure Veg, Free Wifi, Wifi",4.3
The Grill Lab,Cafe,Kochi,Palarivattom,10.00433117,76.30544811,"Cafe, Continental, Pizza, Burger, Fast Food",700,"Takeaway Available, Credit Card, Lunch, No Alcohol Available, Delivery, Cash, Debit Card, Dinner, Table booking recommended, Air Conditioned, Indoor Seating",4.3
Zuka,Cafe,Chennai,Mylapore,13.04403973,80.26997365,"Cafe, Desserts",700,"Lunch, Takeaway Available, Debit Card, Delivery, No Alcohol Available, Dinner, Cash, Credit Card, Indoor Seating, Air Conditioned, Desserts and Bakes",4.4
Velidis,Quick Bites,Chennai,Ramapuram,13.02457048,80.17707333,"Biryani, Andhra, Chinese, North Indian",500,"Delivery, Credit Card, Lunch, Takeaway Available, Debit Card, Dinner, Cash, Free Parking, Air Conditioned, Indoor Seating",4.1
Krispy Kreme,Dessert Parlour,Chennai,"Express Avenue Mall,  Royapettah",13.05893762,80.26415527,"Desserts, Beverages",400,"Debit Card, Mall Parking, Credit Card, Takeaway Available, No Alcohol Available, Delivery, Cash, Air Conditioned, Desserts and Bakes, Wheelchair Accessible, Indoor Seating, Pure Veg, Digital Payments Accepted",4.3
Cream Stone,Dessert Parlour,Chennai,Anna Nagar East,13.08494644,80.21259785,"Desserts, Ice Cream",350,"Delivery, Cash, Takeaway Available, Credit Card, Debit Card, No Alcohol Available, Indoor Seating, Desserts and Bakes, Digital Payments Accepted, Pure Veg, Air Conditioned",4.4
Abitha Biriyani Hotel,Quick Bites,Coimbatore,Ukkadam,10.98984874,76.96329005,"Biryani, South Indian",700,"Lunch, Cash, Breakfast, No Alcohol Available, Dinner, Takeaway Available, Indoor Seating",4.7
The Pasta Bar Veneto,Casual Dining,Chennai,"Forum Vijaya Mall, Vadapalani",13.05087197,80.20944726,"Italian, Continental, Salad, Healthy Food, Beverages, Burger, Desserts, Pizza",900,"Credit Card, Delivery, Debit Card, No Alcohol Available, Lunch, Cash, Dinner, Takeaway Available, Mall Parking, Table booking recommended, Lunch Menu, Disabled Friendly, Indoor Seating, Wheelchair Accessible, Table booking for Groups, Air Conditioned, Vegan Options, Kid Friendly",3.7
Chiyang,Casual Dining,Kochi,Kacheripady,9.985636612,76.28080565,Chinese,450,"Lunch, No Alcohol Available, Dinner, Cash, Indoor Seating, Air Conditioned",4
Abid's,Casual Dining,Chennai,Chetpet,13.07136758,80.25038179,"Seafood, Biryani, Hyderabadi, Arabian",800,"Cash, Debit Card, Takeaway Available, Dinner, Delivery, Credit Card, No Alcohol Available, Lunch, Indoor Seating, Table booking recommended, Air Conditioned, Valet Parking Available",4.2
Madurai Kumar Mess,Mess,Chennai,Vadapalani,13.04465051,80.21246944,"Chettinad, Chinese",350,"Dinner, Cash, Takeaway Available, Debit Card, Lunch, Delivery, Credit Card, Indoor Seating, Air Conditioned",4
Thaal Kitchen,Casual Dining,Kochi,Kakkanad,10.00180926,76.3585344,"Kerala, Arabian",300,"Cash, Dinner, Takeaway Available, Lunch, Delivery, Indoor Seating, Table booking recommended",3.7
Thambi Vilas,Quick Bites,Chennai,Thuraipakkam,12.92802775,80.23154967,"South Indian, Biryani",600,"Delivery, Credit Card, Debit Card, Dinner, Takeaway Available, Breakfast, Lunch, Cash, Indoor Seating, Air Conditioned, Digital Payments Accepted",3.6
North East Kitchen,Casual Dining,Chennai,Egmore,13.06503755,80.25861081,"Chinese, Konkan, Momos",450,"Dinner, Cash, Takeaway Available, Debit Card, Lunch, Delivery, Credit Card, Indoor Seating, Air Conditioned",4.3
Evoke Bistro - Bar & Grill,Casual Dining,Chennai,Thuraipakkam,12.93043609,80.23230739,"Continental, Italian, Chinese, North Indian, European",1300,"Lunch, Cash, Debit Card, Credit Card, Serves Alcohol, Takeaway Available, Dinner, Live Music, Live Sports Screening, Indoor Seating, Smoking Area, Valet Parking Available, Table booking recommended, Fullbar, Air Conditioned",3.8
Punjabi Nation,Casual Dining,Chennai,Guindy,13.0076654,80.20754255,"North Indian, Chinese",700,"Lunch, Cash, Takeaway Available, Debit Card, No Alcohol Available, Dinner, Delivery, Credit Card, Indoor Seating, Digital Payments Accepted, Air Conditioned",3.8
Chennight Restaurant,,Chennai,Shenoy Nagar,13.08073103,80.21867573,"Chinese, South Indian",400,"Dinner, Cash, Takeaway Available, Breakfast, Delivery, Credit Card, Debit Card, Digital Payments Accepted",3.5
KFC,Quick Bites,Chennai,Ashok Nagar,13.03171194,80.21157593,"Burger, Fast Food",500,"Lunch, Cash, Delivery, Debit Card, Dinner, Takeaway Available, Credit Card, Free Parking, Card Upon Delivery, Halal, Indoor Seating, Air Conditioned, Wifi",3.8
Barbeque Nation,Casual Dining,Chennai,Nungambakkam,13.0605419,80.2512059,"North Indian, Continental, Kebab, BBQ",1500,"Dinner, Cash, Credit Card, Debit Card, Lunch, Takeaway Available, Indoor Seating, Air Conditioned, Table booking recommended, Kid Friendly, Buffet",4.5
Pumpkin Tales,Casual Dining,Chennai,Alwarpet,13.03350813,80.25525369,"Singaporean, American, Bakery, Continental, European",950,"Dinner, Delivery, Credit Card, Lunch, Cash, Takeaway Available, Debit Card, Indoor Seating, Air Conditioned, Desserts and Bakes, Table booking recommended",4.5
The Burger Junction,Cafe,Kochi,Edappally,10.0292382,76.31053191,"Burger, Beverages",500,"Lunch, Delivery, Credit Card, No Alcohol Available, Dinner, Cash, Takeaway Available, Breakfast, Indoor Seating, Air Conditioned",4.3
Kappa Chakka Kandhari,Casual Dining,Chennai,Nungambakkam,13.06366486,80.24789941,Kerala,1200,"Dinner, Takeaway Available, Debit Card, Lunch, Cash, Credit Card, Indoor Seating, Air Conditioned, Table booking recommended",4.6
Chai Galli,Cafe,Chennai,Besant Nagar,13.00097146,80.26924744,Cafe,400,"Dinner, Cash, Debit Card, Lunch, Credit Card, Indoor Seating, Pure Veg, Air Conditioned, Wifi",4.2
KFC,Quick Bites,Chennai,Porur,13.03679508,80.14048632,"Burger, Fast Food",500,"Lunch, Cash, Delivery, Credit Card, Dinner, Takeaway Available, Debit Card, Free Parking, Card Upon Delivery, Group Meal, Indoor Seating, Digital Payments Accepted, Air Conditioned, Wifi",3.9
Masaledaar Desi Rasoi,Casual Dining,Chennai,Egmore,13.06482396,80.25897089,North Indian,800,"Takeaway Available, Debit Card, No Alcohol Available, Delivery, Dinner, Lunch, Credit Card, Cash, Breakfast, Air Conditioned, Digital Payments Accepted, Indoor Seating, Pure Veg, Table Reservation Not Required",4.1
Bay View - Taj Fisherman's Cove Resort & Spa,Fine Dining,Chennai,"Taj Fisherman's Cove Resort & Spa, Kanchipuram District",12.7965627,80.24805866,"Seafood, South Indian, Andhra, Kerala",3500,"Cash, Debit Card, Lunch, Serves Alcohol, Credit Card, Dinner, Table reservation required, Valet Parking Available, Luxury Dining, Gluten Free Options, Live Entertainment, 4/5 Star, Free Parking, Outdoor Seating, Wheelchair Accessible, Vegan Options, Fullbar, Table booking for Groups",4.3
Absolute Thai,Casual Dining,Chennai,Foodies Kitchen,13.03135525,80.24573755,"Thai, Asian",1000,"Takeaway Available, Debit Card, Dinner, Cash, Delivery, Credit Card, Lunch, Table reservation required, Kid Friendly, Wifi, Free Parking, Indoor Seating, Air Conditioned, Valet Parking Available, Free Wifi",4.4
Subway,Quick Bites,Chennai,Anna Nagar West,13.08263137,80.2109151,"Fast Food, Healthy Food",500,"Takeaway Available, Dinner, Delivery, Lunch, Debit Card, Cash, Credit Card, Wifi, Digital Payments Accepted, Air Conditioned, Indoor Seating",4.3
Cream Stone,Dessert Parlour,Chennai,Thuraipakkam,12.92708173,80.23067795,"Desserts, Ice Cream",350,"Dinner, Delivery, Debit Card, Lunch, Cash, Takeaway Available, Credit Card, Indoor Seating, Air Conditioned, Pure Veg, Digital Payments Accepted, Desserts and Bakes",4.3
Shakos,Dessert Parlour,Chennai,Anna Nagar East,13.08455064,80.22133783,"Beverages, Desserts, Momos",400,"Delivery, Credit Card, Cash, Takeaway Available, Debit Card, Desserts and Bakes, Free Parking, Indoor Seating, Outdoor Seating",4.5
The Pasta Bar Veneto,Casual Dining,Puducherry,MG Road,11.92978539,79.83005684,"Healthy Food, Continental, Italian, Sandwich, Salad",900,"Cash, Dinner, Takeaway Available, Lunch, Debit Card, Serves Alcohol, Credit Card, Delivery, Live Sports Screening, Fullbar, Kid Friendly, Rooftop, Air Conditioned, Indoor Seating, Beer, Free Wifi, Table Reservation Not Required, Wine, Smoking Area",4.1
Grand Hotel Restaurant,Casual Dining,Kochi,"Grand Hotel, MG Road",9.970719285,76.28515318,"North Indian, Kerala, Chinese, Continental",1000,"Dinner, Cash, Credit Card, Lunch, Breakfast, Live Sports Screening, Indoor Seating, Valet Parking Available, Air Conditioned, Wheelchair Accessible",4.4
McDonald's,Quick Bites,Chennai,Velachery,12.97233485,80.21979388,"Burger, Fast Food",500,"Delivery, Credit Card, Debit Card, Dinner, Takeaway Available, Breakfast, Lunch, Cash, Self Service, Indoor Seating, Kid Friendly, Wifi, Air Conditioned",3.8
Seasonal Tastes,Fine Dining,Chennai,"The Westin Chennai, Velachery",12.98941515,80.22097036,"North Indian, South Indian, Continental, European",2500,"Breakfast, Dinner, Cash, Credit Card, Debit Card, Serves Alcohol, Valet Parking Available, Indoor Seating, 4/5 Star, Variable Menu, Catering Available, Luxury Dining, Wifi, Buffet, Fullbar, Table booking recommended, Air Conditioned, Wheelchair Accessible, Brunch",4.2
Hotel Saravana Bhavan,Casual Dining,Chennai,Anna Nagar West,13.08498269,80.21031797,"South Indian, Chinese",400,"Credit Card, No Alcohol Available, Takeaway Available, Delivery, Debit Card, Breakfast, Dinner, Cash, Lunch, Indoor Seating, Table booking not available, Digital Payments Accepted, Air Conditioned, Buffet, Pure Veg",2.9
Petuk,Quick Bites,Chennai,Perungudi,12.97116584,80.25069661,Bengali,250,"Cash, Takeaway Available, Lunch, Credit Card, Delivery, No Alcohol Available, Dinner, Debit Card, Indoor Seating",4.3
Mocha Art Cafe,Cafe,Kochi,Mattancherry,9.957171,76.259611,"Cafe, Continental, Pizza, Burger, Desserts",700,"Dinner, Cash, Credit Card, Debit Card, No Alcohol Available, Breakfast, Lunch, Outdoor Seating, Free Wifi, Wifi, Indoor Seating",4.8
Ente Keralam,Casual Dining,Chennai,Alwarpet,13.04207376,80.25593463,Kerala,750,"Cash, No Alcohol Available, Dinner, Credit Card, Delivery, Lunch, Debit Card, Takeaway Available, Indoor Seating, Catering Available, Table reservation required, Air Conditioned",4.1
Gelateria Montecatini Terme,Dessert Parlour,Puducherry,White Town,11.92595654,79.83420622,Desserts,150,"Credit Card, Cash, Takeaway Available, Debit Card, Indoor Seating, Outdoor Seating, Air Conditioned, Desserts and Bakes",4.9
Ratna Cafe,Quick Bites,Chennai,Kilpauk,13.08342527,80.23936361,South Indian,300,"Cash, Delivery, Lunch, Takeaway Available, Dinner, Debit Card, Breakfast, Credit Card, No Alcohol Available, Free Parking, Air Conditioned, Indoor Seating, Pure Veg, Digital Payments Accepted",3.9
Thakkaram Mandhi House,Quick Bites,Kochi,Vyttila,9.979186111,76.31736111,"Kerala, Arabian, Biryani",600,"Dinner, Delivery, Lunch, Cash, Outdoor Seating, Air Conditioned, Table booking recommended",3.9
Eden,Casual Dining,Chennai,"Harrisons Hotel, Nungambakkam",13.06674957,80.24289507,"North Indian, Continental, Italian",850,"Cash, Delivery, Dinner, Takeaway Available, Debit Card, No Alcohol Available, Credit Card, Lunch, Air Conditioned, Serves Jain Food, Indoor Seating, Pure Veg, Wifi, Table booking recommended, Wheelchair Accessible, Valet Parking Available",4
The Chocolate Heaven,Cafe,Chennai,Alwarpet,13.03514263,80.25464918,"Desserts, Sandwich",600,"Takeaway Available, Credit Card, Dinner, Cash, Debit Card, Lunch, Delivery, Desserts and Bakes, Indoor Seating, Pure Veg, Air Conditioned",4.2
The Great Kabab Factory - Radisson Blu GRT Hotel,Fine Dining,Chennai,"Radisson Blu, GST Road",12.99478958,80.1873301,"North Indian, Mughlai, Biryani, Afghan",4000,"Cash, Debit Card, Dinner, Credit Card, Lunch, Indoor Seating, Kid Friendly, Wifi, Fullbar, Table booking recommended, Valet Parking Available, Air Conditioned, Disabled Friendly, Wheelchair Accessible, Buffet, 4/5 Star",4
The Feast,Casual Dining,Chennai,Anna Nagar East,13.09225629,80.2106975,"North Indian, Chinese, Biryani",800,"Dinner, Cash, Debit Card, Takeaway Available, No Alcohol Available, Lunch, Credit Card, Delivery, Buffet, Table booking recommended, Valet Parking Available, Indoor Seating, Private Dining Area Available, Digital Payments Accepted, Wheelchair Accessible, Free Parking, Air Conditioned",4.1
Dunkin' Donuts,Quick Bites,Chennai,"Phoenix Market City, Velachery",12.99164746,80.21648336,"Beverages, Burger, Desserts",600,"Takeaway Available, Cash, Credit Card, Dinner, Delivery, Lunch, Mall Parking, Air Conditioned, Desserts and Bakes, Wheelchair Accessible, Indoor Seating",3.9
Mylai Karpagambal Mess,Mess,Chennai,Mylapore,13.03257362,80.27123429,South Indian,200,"Credit Card, Lunch, Cash, Dinner, Delivery, Breakfast, Debit Card, No Alcohol Available, Takeaway Available, Indoor Seating, Air Conditioned, Pure Veg",3.7
Samco,Casual Dining,Chennai,Alwarpet,13.03798664,80.25637485,"Chinese, North Indian, Mughlai, Biryani",700,"Cash, Takeaway Available, Credit Card, Lunch, Debit Card, Dinner, Delivery, No Alcohol Available, Table booking recommended, Valet Parking Available, Kid Friendly, Halal, Air Conditioned, Indoor Seating, Private Dining Area Available",3.8
V4 Midnight Dhabba,Casual Dining,Chennai,Mogappair,13.06818821,80.16137771,"North Indian, Mughlai",550,"Dinner, Delivery, Credit Card, Lunch, Cash, Takeaway Available, Debit Card, Indoor Seating, Digital Payments Accepted, Table booking recommended",4.2
KFC,Quick Bites,Chennai,Mogappair,13.0844187,80.16988937,"Burger, Fast Food",500,"No Alcohol Available, Debit Card, Delivery, Cash, Dinner, Credit Card, Lunch, Takeaway Available, Wifi, Card Upon Delivery, Free Parking, Digital Payments Accepted, Indoor Seating, Air Conditioned",3.8
Cafe Arabica,Cafe,Chennai,Anna Nagar East,13.08732256,80.21818589,Cafe,400,"Cash, Delivery, No Alcohol Available, Credit Card, Lunch, Debit Card, Breakfast, Dinner, Takeaway Available, Desserts and Bakes, Air Conditioned, Indoor Seating, Table Reservation Not Required",4.4
